     3.03           OBSERVATION DATA    M: Mixed            RINEX VERSION / TYPE
rinex ON            NSL                 20201030 142155 UTC PGM / RUN BY / DATE
                                                            MARKER NAME
                                                            MARKER TYPE
rinex ON User                                               OBSERVER / AGENCY
  3172306.5003   603530.8954  5481984.2008                  APPROX POSITION XYZ
XXXXXXXX            samsung             SM-G981B            REC # / TYPE / VERS
XXXXXXXX            SM-G981B                                ANT # / TYPE
  3149785.9652   598260.8822  5495348.4927                  APPROX POSITION XYZ
        0.0000        0.0000        0.0000                  ANTENNA: DELTA H/E/N
G    8 C1C L1C D1C S1C C5X L5X D5X S5X                      SYS / # / OBS TYPES
R    4 C1C L1C D1C S1C                                      SYS / # / OBS TYPES
E    8 C1C L1C D1C S1C C5X L5X D5X S5X                      SYS / # / OBS TYPES
C    4 C2I L2I D2I S2I                                      SYS / # / OBS TYPES
J    8 C1C L1C D1C S1C C5X L5X D5X S5X                      SYS / # / OBS TYPES
  2020    10    30    13    22   14.0001055     GPS         TIME OF FIRST OBS
 22 R01  1 R02 -4 R03  5 R04  6 R05  1 R06 -4 R07  5 R08  6 GLONASS SLOT / FRQ #
    R09 -2 R10 -7 R12 -1 R13 -2 R14 -7 R15  0 R17  4 R18 -3 GLONASS SLOT / FRQ #
    R19  3 R20  2 R21  4 R22 -3 R23  3 R24  2               GLONASS SLOT / FRQ #  
                                                            END OF HEADER
> 2020 10 30 13 22 14.0001055  0 39
G02  22712955.948     -727801.017       -1856.301          29.649                                                            
G04  23308666.946     8217812.395       -4028.001          36.637    23308666.346     6202257.627       -3007.629          19.653
G05  22367801.293    -8708008.455        2162.374          37.659                                                            
G06  23722321.778     4807108.769       -4297.838          26.830    23722323.877     1620033.894       -3207.324          14.774
G07  21627960.275    -7543028.140        1108.792          44.548                                                            
G09  20790212.136     6645642.189       -2362.505          47.644    20790215.134     4944649.063       -1764.019          29.366
G16  23085125.800    -5240009.836        -741.917          38.150                                                            
G26  24498253.012     2755242.454       -3026.339          39.001                                                            
G29  24300297.954      973205.349       -1590.924          40.662                                                            
G30  23019466.455    -4004032.518        2606.676          34.408    23019475.449     -995347.740        1947.583          18.803
R10  21400466.965   -10290815.589        3017.935          37.322                                                            
R09  20198645.769    -5576784.935        -680.262          43.217                                                            
R16  22543175.984    -1545669.370       -4386.661          37.495                                                            
R01  21255203.729    -9974013.949        2561.955          34.668                                                            
R24  21448454.444     1934565.632       -2043.412          39.886                                                            
R23  22411907.959     5867725.885       -4554.311          34.569                                                            
R17  22494453.714    -3178679.577        1732.678          41.678                                                            
R07  20769783.978     7530613.784       -3676.404          44.727                                                            
R08  19264406.129    -5991955.816        -173.323          39.064                                                            
J02  43587163.635          26.673        -979.511          24.742                                                            
C09  40319897.116     3374370.290       -1847.520          21.476                                                            
C10  39332766.592    -1123853.212         689.551          25.388                                                            
C14  21821687.960     2389672.006       -1997.056          41.961                                                            
C24  23792814.377    -3068556.905        1940.556          38.898                                                            
C26  22505623.681      729768.080        -942.476          42.962                                                            
C27  24943273.631     1973909.043       -2061.211          33.208                                                            
C28  26489827.374     1145132.873       -3869.177          29.421                                                            
C30  25748947.575     -494167.290         540.054          36.110                                                            
C33  21922888.300      -50791.789        -281.356          41.361                                                            
E02  26536265.526        1682.589       -2335.607          35.922                                                            
E07  24565703.917     4234593.453       -2586.507          43.182    24565709.613     1103314.814       -1930.525          24.136
E08  26937099.734          75.275       -3643.899          21.528                                                            
E12  24049872.020        -100.956        -635.121          36.609                                                            
E14  22241299.069          15.764       -2578.534          37.590                                                            
E19  26288484.361         -40.339        1868.291          29.299                                                            
E26  28030839.753          60.269       -4078.045          21.457                                                            
E27  27105950.341     -560512.865        2445.857          39.879    27105949.442     -379845.700        1826.799          14.584
E30  24256923.082     -139383.597         434.691          37.771    24256923.381     -119412.134         323.027          17.232
E33  26214832.549     1119190.489       -3277.635          35.131    26214834.648      806400.245       -2445.961          22.954
> 2020 10 30 13 22 15.0001055  0 39
G02  22713310.302     -725944.223       -1856.199          32.039                                                            
G04  23309430.517     8221841.002       -4028.412          37.296    23309436.513     6205262.507       -3007.953          17.337
G05  22367389.978    -8710170.227        2162.117          39.235                                                            
G06  23723145.308     4811406.192       -4297.847          33.662    23723143.809     1623241.233       -3207.496          15.297
G07  21627749.820    -7544136.866        1108.585          45.652                                                            
G09  20790662.424     6648004.799       -2362.772          49.293    20790664.522     4946413.268       -1764.093          30.899
G16  23085263.704    -5239267.746        -742.138          37.946                                                            
G26  24498828.614     2755242.525       -3026.339          37.822                                                            
G29  24300601.644      974796.647       -1591.426          42.362                                                            
G30  23018977.493    -4006639.146        2606.370          35.673    23018981.691     -997293.098        1947.111          18.404
R10  21399882.670   -10293832.511        3016.466          39.685                                                            
R09  20198769.583    -5576104.737        -680.457          44.938                                                            
R16  22543999.514    -1541282.250       -4387.240          38.802                                                            
R01  21254731.855    -9976574.854        2561.281          37.333                                                            
R24  21448833.981     1936609.151       -2043.192          40.904                                                            
R23  22412744.080     5872281.998       -4551.706          30.649                                                            
R17  22494132.036    -3180411.666        1731.782          42.843                                                            
R07  20770477.398     7534290.113       -3676.362          47.325                                                            
R08  19264440.006    -5991782.652        -173.497          41.659                                                            
J02  43587351.305          26.696        -979.511          18.886                                                            
C09  40320254.169     3376213.331       -1849.339          19.925                                                            
C10  39332630.487    -1124546.646         690.153          26.446                                                            
C14  21822074.092     2391669.036       -1997.131          43.441                                                            
C24  23792442.035    -3070497.422        1940.458          42.262                                                            
C26  22505802.957      730710.725        -942.909          44.954                                                            
C27  24943669.957     1975971.248       -2062.341          38.956                                                            
C28  26490564.864     1149003.079       -3866.273          26.978                                                            
C30  25748841.748     -494706.900         539.496          36.466                                                            
C33  21922937.766      -50510.684        -281.249          40.991                                                            
E02  26536709.818        1682.655       -2336.583          33.189                                                            
E07  24566196.476     4237180.005       -2586.519          45.510    24566201.872     1105246.103       -1932.757          26.906
E08  26937793.454          75.361       -3643.899          17.665                                                            
E12  24049993.436        -100.941        -635.121          34.530                                                            
E14  22241790.429          15.834       -2580.485          35.965                                                            
E19  26288129.407         -40.383        1868.291          23.930                                                            
E26  28031616.815          60.365       -4078.045          23.636                                                            
E27  27105482.965     -562958.462        2445.689          41.342    27105491.059     -381672.518        1826.818          12.000
E30  24256841.838     -139818.559         434.856          39.956    24256839.739     -119736.847         327.240          22.288
E33  26215456.417     1122467.874       -3277.604          32.894    26215457.916      808847.349       -2445.045          23.004
> 2020 10 30 13 22 16.0001055  0 39
G02  22713656.563     -724086.899       -1857.721          35.538                                                            
G04  23310194.988     8225870.202       -4029.531          36.505    23310202.183     6208272.650       -3009.229          20.015
G05  22366977.464    -8712331.625        2161.062          40.861                                                            
G06  23723960.144     4815704.023       -4298.384          33.447    23723962.542     1626448.558       -3207.324          13.899
G07  21627538.766    -7545244.785        1107.346          45.640                                                            
G09  20791111.813     6650368.201       -2363.911          49.094    20791114.511     4948178.180       -1765.403          32.007
G16  23085398.611    -5238524.764        -743.819          37.061                                                            
G26  24499405.714     2755242.424       -3027.314          38.959                                                            
G29  24300905.034      976388.738       -1592.682          42.681                                                            
G30  23018478.339    -4009245.343        2606.005          36.767    23018480.737     -999239.224        1947.937          22.205
R10  21399312.764   -10296848.404        3015.057          39.178                                                            
R09  20198896.395    -5575423.322        -682.089          43.727                                                            
R16  22544815.249    -1536894.412       -4388.095          37.663                                                            
R01  21254248.590    -9979135.417        2560.119          37.953                                                            
R24  21449206.323     1938653.789       -2045.344          43.045                                                            
R23  22413577.803     5876837.786       -4556.381          31.461                                                            
R17  22493810.959    -3182142.808        1730.708          41.858                                                            
R07  20771162.723     7537967.175       -3677.650          46.756                                                            
R08  19264467.886    -5991608.405        -174.716          41.962                                                            
J02  43587538.075          26.658        -979.511          27.552                                                            
C09  40320607.324     3378056.677       -1852.954          20.446                                                            
C10  39332497.379    -1125236.831         687.868          31.986                                                            
C14  21822456.028     2393666.804       -1998.183          43.769                                                            
C24  23792066.995    -3072437.344        1939.485          41.496                                                            
C26  22505984.931      731654.195        -944.057          43.426                                                            
C27  24944064.483     1978034.123       -2063.392          38.436                                                            
C28  26491304.152     1152872.554       -3874.620          26.826                                                            
C30  25748738.619     -495245.822         538.657          36.735                                                            
C33  21922992.928      -50228.632        -282.540          42.095                                                            
E02  26537155.310        1682.563       -2336.583          36.586                                                            
E07  24566689.335     4239767.090       -2587.492          45.682    24566695.331     1107178.052       -1932.503          27.648
E08  26938487.173          75.218       -3643.899          18.214                                                            
E12  24050116.051        -100.947        -636.097          36.650                                                            
E14  22242282.988          15.900       -2581.461          35.793                                                            
E19  26287774.452         -40.310        1868.291          30.573                                                            
E26  28032392.978          60.461       -4078.045          26.795                                                            
E27  27105017.387     -565403.759        2445.059          41.213    27105025.481     -383499.336        1826.818          13.843
E30  24256760.894     -140252.728         433.562          39.163    24256755.198     -120066.003         325.822          21.210
E33  26216082.084     1125745.757       -3281.362          30.692    26216080.885      811295.064       -2444.602          22.195
> 2020 10 30 13 22 17.0001055  0 39
G02  22714012.117     -722228.871       -1858.876          36.695                                                            
G04  23310962.456     8229899.712       -4030.075          35.201    23310970.551     6211276.581       -3007.000          20.447
G05  22366565.849    -8714492.295        2159.875          41.577                                                            
G06  23724778.578     4820002.410       -4298.602          32.739    23724781.276     1629656.674       -3207.496          12.000
G07  21627327.113    -7546351.969        1106.538          45.601                                                            
G09  20791562.101     6652732.282       -2364.680          48.640    20791563.600     4949943.495       -1765.557          32.793
G16  23085544.010    -5237780.610        -745.237          39.132                                                            
G26  24499981.915     2755242.512       -3028.290          35.021                                                            
G29  24301208.723      977981.699       -1593.645          41.721                                                            
G30  23017983.082    -4011850.905        2605.090          38.895    23017984.881    -1001184.918        1946.980          23.011
R10  21398751.852   -10299863.521        3014.472          39.372                                                            
R09  20199022.608    -5574740.674        -683.464          44.135                                                            
R16  22545633.383    -1532505.824       -4389.108          35.836                                                            
R01  21253769.522    -9981695.322        2559.637          39.083                                                            
R24  21449593.056     1940699.651       -2046.793          43.786                                                            
R23  22414444.203     5881393.902       -4559.275          29.931                                                            
R17  22493473.992    -3183873.110        1729.897          38.808                                                            
R07  20771840.854     7541644.925       -3678.183          45.969                                                            
R08  19264507.459    -5991433.295        -175.850          41.404                                                            
J02  43587724.546          26.681        -979.511          25.525                                                            
C09  40320966.476     3379906.001       -1853.508          21.609                                                            
C10  39332364.870    -1125924.384         687.436          33.694                                                            
C14  21822841.261     2395665.283       -1998.919          44.251                                                            
C24  23791697.051    -3074376.583        1938.720          41.390                                                            
C26  22506167.804      732598.518        -944.868          43.322                                                            
C27  24944463.807     1980097.776       -2064.547          37.328                                                            
C28  26492046.438     1156742.136       -3871.633          26.724                                                            
C30  25748639.088     -495783.992         538.093          36.035                                                            
C33  21923046.291      -49945.960        -283.087          42.280                                                            
E02  26537600.801        1682.629       -2337.559          40.919                                                            
E07  24567181.294     4242354.644       -2587.934          44.837    24567186.691     1109110.364       -1932.845          27.963
E08  26939180.893          75.304       -3643.899          20.790                                                            
E12  24050236.268        -100.932        -636.097          37.880                                                            
E14  22242774.348          15.809       -2583.412          35.942                                                            
E19  26287418.599         -40.354        1868.291          29.516                                                            
E26  28033169.141          60.301       -4078.045          24.378                                                            
E27  27104550.610     -567848.638        2444.547          41.090    27104561.403     -385324.945        1826.818          13.484
E30  24256676.352     -140686.138         432.817          39.805    24256674.554     -120399.810         325.721          21.886
E33  26216708.950     1129024.239       -3281.580          28.730    26216704.453      813743.331       -2446.403          22.995
> 2020 10 30 13 22 18.0001055  0 39
G02  22714365.872     -720369.721       -1859.436          36.248                                                            
G04  23311728.726     8233929.858       -4030.970          32.719    23311735.921     6214286.911       -3007.076          19.541
G05  22366155.733    -8716652.208        2159.284          41.593                                                            
G06  23725597.311     4824301.453       -4299.614          34.076    23725600.608     1632863.789       -3208.886          16.177
G07  21627115.759    -7547458.116        1105.479          46.639                                                            
G09  20792011.190     6655097.342       -2365.629          47.793    20792013.589     4951709.714       -1766.857          32.201
G16  23085687.011    -5237035.255        -746.068          39.107                                                            
G26  24500558.716     2755242.583       -3028.290          35.870                                                            
G29  24301510.314      979575.903       -1594.706          38.721                                                            
G30  23017486.326    -4014455.811        2604.182          41.460    23017491.122    -1003130.240        1945.986          24.118
R10  21398181.647   -10302877.502        3013.403          42.580                                                            
R09  20199148.820    -5574056.519        -685.049          45.081                                                            
R16  22546477.598    -1528116.112       -4390.268          35.926                                                            
R01  21253301.546    -9984254.438        2558.716          39.669                                                            
R24  21449970.494     1942746.841       -2048.154          43.278                                                            
R23  22415297.712     5885950.356       -4558.938          29.754                                                            
R17  22493155.912    -3185602.013        1728.340          39.939                                                            
R07  20772540.869     7545323.633       -3679.552          46.115                                                            
R08  19264530.543    -5991257.042        -177.095          41.644                                                            
J02  43587910.118          26.704        -979.511          21.009                                                            
C09  40321321.730     3381754.777       -1853.080          18.628                                                            
C10  39332233.561    -1126611.246         686.702          33.328                                                            
C14  21823224.996     2397664.750       -2000.060          44.200                                                            
C24  23791324.109    -3076314.919        1937.643          44.541                                                            
C26  22506349.478      733543.985        -946.227          44.531                                                            
C27  24944858.934     1982162.346       -2065.429          37.358                                                            
C28  26492792.621     1160612.505       -3868.597          25.978                                                            
C30  25748533.861     -496320.991         536.182          34.630                                                            
C33  21923105.350      -49662.261        -284.227          42.373                                                            
E02  26538044.794        1682.684       -2337.559          39.346                                                            
E07  24567676.851     4244942.927       -2588.602          44.237    24567678.350     1111043.043       -1932.259          28.089
E08  26939874.613          75.389       -3643.899          18.184                                                            
E12  24050357.684        -100.899        -637.073          37.387                                                            
E14  22243266.607          15.874       -2584.388          36.676                                                            
E19  26287063.944         -40.386        1867.315          28.115                                                            
E26  28033945.304          60.397       -4078.045          22.022                                                            
E27  27104088.030     -570292.876        2443.796          39.395    27104095.525     -387153.242        1825.579          18.516
E30  24256592.411     -141118.492         431.786          41.243    24256596.008     -120715.469         323.030          21.078
E33  26217328.321     1132303.525       -3281.119          29.206    26217328.021      816192.062       -2447.311          21.891
> 2020 10 30 13 22 19.0001055  0 39
G02  22714722.325     -718508.787       -1861.030          36.953                                                            
G04  23312499.492     8237960.915       -4031.628          30.690    23312504.289     6217290.705       -3007.210          21.461
G05  22365744.118    -8718810.953        2158.468          42.371                                                            
G06  23726413.046     4828602.095       -4300.264          36.754    23726418.442     1636074.564       -3207.171          18.220
G07  21626904.406    -7548563.071        1104.675          47.052                                                            
G09  20792462.378     6657463.592       -2366.580          48.098    20792463.877     4953476.730       -1767.530          31.850
G16  23085832.711    -5236288.430        -747.474          39.295                                                            
G26  24501136.116     2755242.500       -3030.241          37.030                                                            
G29  24301815.203      981171.463       -1595.854          39.837                                                            
G30  23016991.069    -4017059.099        2603.537          42.954    23016996.165    -1005074.477        1944.652          25.034
R10  21397622.534   -10305890.314        3012.306          42.995                                                            
R09  20199283.727    -5573370.775        -686.287          45.165                                                            
R16  22547294.833    -1523725.158       -4391.499          36.657                                                            
R01  21252822.177    -9986812.441        2557.657          40.173                                                            
R24  21450359.625     1944795.722       -2049.684          43.845                                                            
R23  22416138.031     5890513.254       -4557.066          26.576                                                            
R17  22492827.340    -3187329.466        1726.929          39.620                                                            
R07  20773223.796     7549003.483       -3680.221          46.438                                                            
R08  19264569.216    -5991079.451        -177.703          41.785                                                            
J02  43588096.888          26.679        -980.487          16.518                                                            
C09  40321679.982     3383603.803       -1852.023          19.613                                                            
C10  39332100.154    -1127297.317         686.281          33.699                                                            
C14  21823607.531     2399665.259       -2000.866          43.480                                                            
C24  23790951.767    -3078252.240        1936.973          44.874                                                            
C26  22506530.853      734490.712        -947.320          44.304                                                            
C27  24945254.060     1984228.143       -2066.233          37.648                                                            
C28  26493543.002     1164487.664       -3871.282          24.544                                                            
C30  25748431.931     -496856.830         535.487          35.790                                                            
C33  21923160.512      -49377.420        -285.038          41.633                                                            
E02  26538490.585        1682.614       -2339.510          38.561                                                            
E07  24568168.511     4247532.235       -2589.681          45.090    24568173.008     1112976.763       -1934.728          27.262
E08  26940568.632          75.257       -3644.874          20.294                                                            
E12  24050479.400        -100.887        -639.024          37.754                                                            
E14  22243759.466          15.788       -2587.315          37.184                                                            
E19  26286708.091         -40.301        1866.340          30.036                                                            
E26  28034721.766          60.243       -4079.021          26.263                                                            
E27  27103621.853     -572736.340        2443.324          39.544    27103626.650     -388984.989        1825.217          18.874
E30  24256511.167     -141549.731         430.761          41.130    24256515.963     -121037.473         322.660          21.284
E33  26217950.391     1135583.738       -3280.568          29.088    26217956.087      818616.036       -2449.630          21.138
> 2020 10 30 13 22 20.0001055  0 39
G02  22715075.480     -716646.960       -1862.103          35.978                                                            
G04  23313263.064     8241993.108       -4032.756          30.446    23313272.058     6220304.433       -3007.915          19.628
G05  22365332.203    -8720968.416        2156.970          40.150                                                            
G06  23727230.280     4832903.308       -4301.462          37.234    23727237.775     1639284.992       -3209.458          20.993
G07  21626693.951    -7549666.583        1103.041          47.329                                                            
G09  20792912.966     6659831.242       -2368.030          48.068    20792914.465     4955244.728       -1768.144          32.329
G16  23085975.112    -5235539.924        -749.209          38.853                                                            
G26  24501713.217     2755242.589       -3031.217          37.125                                                            
G29  24302117.994      982768.556       -1597.334          41.355                                                            
G30  23016495.512    -4019661.715        2602.346          42.189    23016501.208    -1007018.054        1944.771          24.653
R10  21397055.027   -10308901.627        3010.753          43.151                                                            
R09  20199410.839    -5572683.132        -688.202          45.787                                                            
R16  22548118.362    -1519332.834       -4392.857          37.081                                                            
R01  21252350.004    -9989369.230        2556.164          38.096                                                            
R24  21450743.060     1946846.360       -2051.259          42.894                                                            
R23  22417016.123     5895075.666       -4559.141          26.013                                                            
R17  22492509.260    -3189055.197        1725.037          40.430                                                            
R07  20773916.017     7552684.696       -3681.566          46.781                                                            
R08  19264594.399    -5990900.198        -179.751          41.629                                                            
J02  43588284.858          26.716        -981.462          21.009                                                            
C09  40322045.429     3385458.555       -1850.644          18.757                                                            
C10  39331968.245    -1127982.356         685.332          34.269                                                            
C14  21823994.863     2401667.100       -2002.192          43.778                                                            
C24  23790580.924    -3080188.230        1935.573          45.553                                                            
C26  22506714.026      735438.915        -948.741          44.980                                                            
C27  24945656.082     1986295.461       -2067.606          37.310                                                            
C28  26494283.489     1168364.472       -3871.743          25.070                                                            
C30  25748327.304     -497391.221         534.018          35.996                                                            
C33  21923213.275      -49091.221        -286.577          41.649                                                            
E02  26538936.077        1682.679       -2340.486          38.403                                                            
E07  24568661.070     4250122.616       -2590.517          45.138    24568665.867     1114911.192       -1934.969          27.059
E08  26941262.352          75.352       -3645.850          19.647                                                            
E12  24050602.314        -100.853        -639.999          37.035                                                            
E14  22244252.025          15.858       -2589.266          35.775                                                            
E19  26286353.136         -40.345        1866.340          29.593                                                            
E26  28035498.828          60.339       -4079.021          19.669                                                            
E27  27103156.275     -575178.716        2442.031          39.366    27103161.072     -390801.284        1825.560          18.522
E30  24256429.923     -141979.541         429.354          41.426    24256429.623     -121358.779         321.978          21.872
E33  26218573.359     1138865.406       -3282.134          29.197    26218580.554      821063.360       -2449.353          21.224
> 2020 10 30 13 22 21.0001055  0 39
G02  22715427.737     -714784.121       -1863.278          34.334                                                            
G04  23314030.233     8246025.833       -4033.225          37.656    23314040.725     6223318.207       -3010.278          21.397
G05  22364920.288    -8723125.176        2155.720          40.049                                                            
G06  23728050.213     4837205.137       -4302.576          38.787    23728055.009     1642495.767       -3209.896          19.781
G07  21626484.996    -7550769.225        1102.041          47.319                                                            
G09  20793363.254     6662199.739       -2369.135          47.868    20793364.753     4957013.388       -1768.919          31.992
G16  23086115.115    -5234790.375        -750.329          39.766                                                            
G26  24502290.617     2755242.505       -3033.168          37.132                                                            
G29  24302422.283      984366.707       -1598.672          38.173                                                            
G30  23016001.154    -4022263.654        2601.335          42.486    23016005.951    -1008961.081        1943.349          26.437
R10  21396486.321   -10311912.088        3009.624          44.122                                                            
R09  20199542.748    -5571994.172        -689.782          45.369                                                            
R16  22548935.897    -1514939.605       -4393.663          37.845                                                            
R01  21251859.544    -9991925.404        2555.588          39.201                                                            
R24  21451138.486     1948898.289       -2052.912          43.476                                                            
R23  22417873.829     5899633.762       -4560.767          24.606                                                            
R17  22492194.178    -3190779.786        1724.063          39.495                                                            
R07  20774603.741     7556366.665       -3682.677          46.863                                                            
R08  19264631.873    -5990720.023        -180.845          41.233                                                            
J02  43588471.629          26.752        -982.438          20.479                                                            
C09  40322419.570     3387310.316       -1851.141          18.364                                                            
C10  39331840.833    -1128666.932         684.191          34.471                                                            
C14  21824378.297     2403669.739       -2003.167          44.851                                                            
C24  23790208.881    -3082123.523        1934.776          46.224                                                            
C26  22506894.201      736388.091        -949.831          45.216                                                            
C27  24946055.105     1988363.709       -2069.063          37.930                                                            
C28  26495027.574     1172234.150       -3872.105          21.969                                                            
C30  25748226.873     -497924.658         532.717          36.729                                                            
C33  21923272.334      -48804.228        -287.652          42.154                                                            
E02  26539382.768        1682.756       -2342.437          38.120                                                            
E07  24569153.629     4252713.684       -2591.462          44.926    24569157.826     1116845.940       -1934.649          27.212
E08  26941956.372          75.447       -3646.826          19.139                                                            
E12  24050724.930        -100.841        -641.951          36.891                                                            
E14  22244746.083          15.933       -2592.193          36.923                                                            
E19  26285998.782         -40.365        1864.389          28.455                                                            
E26  28036275.290          60.446       -4080.972          25.130                                                            
E27  27102690.997     -577620.696        2441.323          39.294    27102698.192     -392624.849        1824.321          18.828
E30  24256347.180     -142408.537         428.415          41.184    24256348.379     -121681.921         320.868          20.531
E33  26219198.726     1142147.756       -3283.170          29.282    26219204.123      823514.456       -2448.826          20.426
> 2020 10 30 13 22 22.0001055  0 39
G02  22715787.188     -712919.956       -1864.580          35.177                                                            
G04  23314800.699     8250059.513       -4034.417          37.190    23314806.995     6226326.256       -3012.450          20.559
G05  22364510.172    -8725280.786        2155.117          40.757                                                            
G06  23728870.145     4841508.025       -4303.012          36.262    23728873.743     1645710.861       -3211.249          20.429
G07  21626275.141    -7551870.648        1100.623          47.163                                                            
G09  20793813.842     6664569.416       -2370.204          47.089    20793815.341     4958783.027       -1770.216          31.803
G16  23086257.217    -5234039.226        -752.367          39.554                                                            
G26  24502867.418     2755242.576       -3033.168          31.272                                                            
G29  24302728.071      985966.350       -1600.401          40.246                                                            
G30  23015506.496    -4024864.609        2600.660          41.539    23015510.693    -1010903.338        1943.398          25.178
R10  21395917.614   -10314921.287        3008.666          43.406                                                            
R09  20199669.260    -5571303.560        -691.297          45.385                                                            
R16  22549761.225    -1510545.170       -4395.215          37.716                                                            
R01  21251378.077    -9994480.441        2554.562          40.141                                                            
R24  21451514.426     1950951.881       -2054.479          43.562                                                            
R23  22418712.049     5904197.476       -4562.225          27.647                                                            
R17  22491869.203    -3192502.893        1722.574          38.897                                                            
R07  20775291.165     7560049.824       -3683.982          46.933                                                            
R08  19264665.749    -5990538.444        -182.420          41.866                                                            
J02  43588659.299          26.714        -982.438          21.549                                                            
C09  40322771.226     3389186.718       -1849.761          19.381                                                            
C10  39331711.623    -1129350.539         683.342          33.658                                                            
C14  21824761.432     2405673.503       -2004.466          43.792                                                            
C24  23789836.839    -3084057.674        1933.539          45.428                                                            
C26  22507077.075      737338.582        -951.220          45.164                                                            
C27  24946453.230     1990433.129       -2069.519          36.486                                                            
C28  26495771.959     1176104.647       -3873.883          26.228                                                            
C30  25748125.843     -498456.962         531.791          35.589                                                            
C33  21923324.198      -48516.084        -288.521          41.381                                                            
E02  26539828.259        1682.664       -2342.437          37.180                                                            
E07  24569647.387     4255305.705       -2592.468          44.944    24569652.484     1118781.706       -1937.854          27.269
E08  26942651.291          75.304       -3646.826          15.698                                                            
E12  24050847.545        -100.826        -641.951          35.934                                                            
E14  22245239.541          15.837       -2593.168          35.639                                                            
E19  26285643.827         -40.293        1864.389          29.395                                                            
E26  28037052.652          60.287       -4080.972          24.274                                                            
E27  27102228.418     -580061.703        2440.741          39.619    27102233.814     -394447.403        1822.835          19.129
E30  24256265.337     -142836.284         427.647          41.551    24256267.136     -122002.400         319.508          22.152
E33  26219822.295     1145431.048       -3284.078          30.857    26219829.790      825962.915       -2449.736          19.397
> 2020 10 30 13 22 23.0001055  0 39
G02  22716140.043     -711054.545       -1866.067          35.035                                                            
G04  23315569.067     8254094.076       -4035.030          35.764    23315571.766     6229333.636       -3011.116          19.190
G05  22364102.154    -8727435.335        2154.045          41.111                                                            
G06  23729684.381     4845811.768       -4304.348          35.668    23729691.576     1648917.079       -3210.220          19.989
G07  21626067.385    -7552970.870        1099.546          47.311                                                            
G09  20794264.730     6666940.305       -2371.512          46.990    20794266.829     4960553.500       -1770.838          31.822
G16  23086401.417    -5233286.726        -753.256          40.159                                                            
G26  24503445.718     2755242.665       -3034.143          34.101                                                            
G29  24303032.361      987567.269       -1601.624          39.040                                                            
G30  23015013.038    -4027464.534        2599.224          42.787    23015015.736    -1012844.806        1942.228          24.404
R10  21395369.294   -10317929.181        3007.419          43.477                                                            
R09  20199801.768    -5570611.280        -693.100          45.345                                                            
R16  22550578.759    -1506149.565       -4396.177          37.634                                                            
R01  21250911.000    -9997034.476        2553.591          40.735                                                            
R24  21451893.363     1953007.078       -2055.921          43.903                                                            
R23  22419582.046     5908753.252       -4562.864          26.640                                                            
R17  22491540.630    -3194224.444        1720.929          38.133                                                            
R07  20775985.784     7563734.153       -3684.884          47.561                                                            
R08  19264697.527    -5990355.595        -183.609          41.823                                                            
J02  43588845.770          26.737        -982.438          19.952                                                            
C09  40323121.684     3391037.320       -1849.761          18.024                                                            
C10  39331582.712    -1130033.353         682.727          33.389                                                            
C14  21825148.164     2407678.419       -2005.340          43.834                                                            
C24  23789466.895    -3085990.783        1932.683          45.466                                                            
C26  22507259.948      738290.359        -952.288          45.266                                                            
C27  24946851.054     1992503.870       -2071.393          36.200                                                            
C28  26496521.140     1179979.206       -3873.882          25.062                                                            
C30  25748026.312     -498987.840         530.389          35.223                                                            
C33  21923379.660      -48226.708        -290.116          42.325                                                            
E02  26540274.650        1682.719       -2342.437          37.865                                                            
E07  24570142.045     4257898.685       -2593.311          45.804    24570145.043     1120717.950       -1936.580          27.321
E08  26943344.711          75.390       -3646.826          19.188                                                            
E12  24050970.160        -100.793        -642.926          36.997                                                            
E14  22245734.498          15.907       -2595.119          37.226                                                            
E19  26285288.873         -40.336        1864.389          31.439                                                            
E26  28037828.815          60.382       -4080.972          18.938                                                            
E27  27101761.941     -582501.888        2439.879          39.605    27101768.236     -396270.890        1822.587          19.867
E30  24256181.695     -143262.781         426.018          40.943    24256184.693     -122320.680         318.236          22.995
E33  26220445.563     1148715.384       -3284.878          31.076    26220452.458      828414.625       -2449.684          18.678
> 2020 10 30 13 22 24.0001055  0 39
G02  22716497.396     -709187.910       -1867.719          37.381                                                            
G04  23316335.937     8258129.387       -4035.701          34.873    23316338.934     6232350.345       -3011.421          19.037
G05  22363692.338    -8729588.883        2152.767          40.975                                                            
G06  23730503.714     4850116.428       -4305.145          35.309    23730510.609     1652128.579       -3210.754          20.354
G07  21625858.130    -7554069.929        1098.316          47.203                                                            
G09  20794716.218     6669312.311       -2372.772          47.273    20794719.215     4962324.735       -1771.541          31.879
G16  23086545.017    -5232532.779        -755.136          38.486                                                            
G26  24504024.317     2755242.581       -3036.095          33.843                                                            
G29  24303338.149      989169.527       -1603.085          39.557                                                            
G30  23014518.380    -4030063.552        2598.400          41.987    23014520.779    -1014785.782        1942.797          25.309
R10  21394792.793   -10320935.965        3006.094          43.700                                                            
R09  20199932.478    -5569917.471        -694.728          45.867                                                            
R16  22551396.593    -1501752.756       -4397.146          37.728                                                            
R01  21250436.129    -9999587.535        2552.485          39.711                                                            
R24  21452274.999     1955063.844       -2057.688          43.662                                                            
R23  22420433.457     5913313.753       -4564.055          23.760                                                            
R17  22491221.651    -3195944.580        1719.065          39.540                                                            
R07  20776669.011     7567419.566       -3685.997          47.132                                                            
R08  19264723.310    -5990171.355        -185.387          42.036                                                            
J02  43589034.040          26.726        -984.389          19.775                                                            
C09  40323465.546     3392887.017       -1849.761          18.949                                                            
C10  39331445.407    -1130715.426         681.664          33.439                                                            
C14  21825533.697     2409684.390       -2006.527          43.890                                                            
C24  23789095.452    -3087922.881        1931.615          45.212                                                            
C26  22507442.522      739243.322        -953.637          45.516                                                            
C27  24947245.881     1994575.657       -2072.399          37.479                                                            
C28  26497260.728     1183854.795       -3876.852          26.237                                                            
C30  25747920.785     -499517.639         529.133          35.024                                                            
C33  21923434.222      -47936.256        -291.633          42.041                                                            
E02  26540721.341        1682.649       -2344.388          36.513                                                            
E07  24570633.704     4260492.585       -2594.470          45.318    24570638.801     1122654.915       -1936.936          27.684
E08  26944039.929          75.267       -3648.777          21.681                                                            
E12  24051093.075        -100.781        -644.877          38.407                                                            
E14  22246228.556          15.983       -2598.046          33.662                                                            
E19  26284935.718         -40.240        1862.437          32.268                                                            
E26  28038606.177          60.484       -4081.947          20.857                                                            
E27  27101297.262     -584941.351        2439.248          40.053    27101304.457     -398092.423        1823.293          20.069
E30  24256101.051     -143688.210         425.004          41.196    24256104.648     -122638.446         317.838          23.072
E33  26221071.530     1152000.776       -3286.349          31.398    26221079.325      830867.506       -2450.503          20.046
> 2020 10 30 13 22 25.0001055  0 39
G02  22716847.554     -707319.898       -1869.798          36.201                                                            
G04  23317101.007     8262165.761       -4036.784          35.142    23317107.003     6235361.467       -3012.164          18.461
G05  22363282.821    -8731741.194        2151.527          41.416                                                            
G06  23731326.644     4854422.020       -4306.394          35.322    23731331.441     1655341.754       -3211.783          18.458
G07  21625648.275    -7555167.767        1096.869          47.480                                                            
G09  20795168.005     6671685.508       -2374.146          47.335    20795171.003     4964096.937       -1772.597          31.951
G16  23086687.719    -5231777.371        -756.142          38.594                                                            
G26  24504602.317     2755242.653       -3036.095          33.917                                                            
G29  24303641.539      990773.136       -1604.279          39.623                                                            
G30  23014024.322    -4032661.541        2597.210          42.448    23014025.821    -1016725.759        1942.453          24.173
R10  21394233.680   -10323941.476        3004.859          43.560                                                            
R09  20200060.789    -5569221.934        -696.530          45.721                                                            
R16  22552222.521    -1497354.579       -4398.790          37.408                                                            
R01  21249952.864   -10002139.531        2551.478          40.911                                                            
R24  21452662.631     1957122.282       -2059.276          43.970                                                            
R23  22421292.662     5917871.155       -4564.671          25.577                                                            
R17  22490892.479    -3197663.311        1717.653          38.440                                                            
R07  20777355.836     7571106.147       -3687.266          47.087                                                            
R08  19264770.377    -5989985.749        -186.984          41.769                                                            
J02  43589221.710          26.749        -984.389          12.000                                                            
C09  40323815.403     3394739.274       -1851.712          19.914                                                            
C10  39331317.995    -1131396.619         681.095          33.452                                                            
C14  21825917.732     2411691.494       -2007.865          44.195                                                            
C24  23788725.808    -3089853.850        1930.381          45.375                                                            
C26  22507625.095      740197.643        -955.102          45.231                                                            
C27  24947642.506     1996648.836       -2073.755          37.157                                                            
C28  26498005.113     1187731.147       -3881.331          25.841                                                            
C30  25747822.154     -500046.249         527.954          36.062                                                            
