     3.04           OBSERVATION DATA    M: Mixed            RINEX VERSION / TYPE
CONVBIN 2.4.3                           20220228 174849 UTC PGM / RUN BY / DATE 
format: RINEX                                               COMMENT             
log: opec0010.10o                                           COMMENT             
                                                            MARKER NAME         
                                                            MARKER NUMBER       
                                                            MARKER TYPE         
                                                            OBSERVER / AGENCY   
4813K54762          TRIMBLE_NETR5                           REC # / TYPE / VERS 
Unknown             TRM55971.00                             ANT # / TYPE        
  3149785.9652   598260.8822  5495348.4927                  APPROX POSITION XYZ 
        0.0000        0.0000        0.0000                  ANTENNA: DELTA H/E/N
G    5 C1C L1C C2W L2W C2X                                  SYS / # / OBS TYPES 
R    5 C1C L1C C1P C2P L2P                                  SYS / # / OBS TYPES 
    30.000                                                  INTERVAL            
  2010    01    01    00    00   00.0000000     GPS         TIME OF FIRST OBS   
  2010    01    01    23    59   30.0000000     GPS         TIME OF LAST OBS    
G L1C                                                       SYS / PHASE SHIFT   
G L2W  0.00000                                              SYS / PHASE SHIFT   
R L1C                                                       SYS / PHASE SHIFT   
R L2P  0.00000                                              SYS / PHASE SHIFT   
 24 R01  1 R02 -4 R03  5 R04  6 R05  1 R06 -4 R07  5 R08  6 GLONASS SLOT / FRQ # 
    R09 -2 R10 -7 R11  0 R12 -1 R13 -2 R14 -7 R15  0 R16 -1 GLONASS SLOT / FRQ # 
    R17  4 R18 -3 R19  3 R20  2 R21  4 R22 -3 R23  3 R24  2 GLONASS SLOT / FRQ # 
 C1C    0.000 C1P    0.000 C2C    0.000 C2P    0.000        GLONASS COD/PHS/BIS 
                                                            END OF HEADER       
> 2010 01 01 00 00 00.0000000  0 14                     
G09  22676737.734   119167046.7011   22676742.023    92857489.7781                 
G17  24581801.992   129178631.4511   24581806.633   100658382.7301   24581806.055  
G18  22916308.484   120425981.6591   22916311.188    93838461.7921                 
G05  25163691.305   132236272.9281   25163696.129   103041108.3091   25163695.742  
R15  22748390.133   121560514.4361   22748389.219    22748394.023    94547098.9751 
G19  25040546.781   131588922.7121                                                 
R13  20441137.211   109154492.2071   20441136.063    20441140.660    84898011.3881 
G22  24801398.266   130332226.7141   24801399.629   101557588.2621                 
G08  23058615.047   121173816.0211   23058619.754    94421203.4421                 
G15  20590913.625   108205946.8611   20590916.984    84316369.0481   20590916.992  
G27  22347464.906   117436712.0981   22347469.367    91509185.0991                 
G28  21461705.930   112781951.8081   21461709.371    87882138.8091                 
R14  19365456.047   103228776.5571   19365455.250    19365461.559    80289100.1741 
R03  23697342.805   126853630.6741   23697342.242    23697346.965    98664014.7911 
> 2010 01 01 00 00 30.0000000  0 14                     
G09  22655718.469   119056590.779    22655722.422    92771420.227                  
G17  24562378.984   129076566.096    24562383.965   100578851.286    24562383.754  
G18  22908786.320   120386451.445    22908788.883    93807659.037                  
G05  25185634.242   132351585.136    25185639.867   103130961.939    25185639.500  
R15  22726985.805   121446133.226    22726984.539    22726989.605    94458135.831  
G19  25054876.984   131664234.957                                                  
R13  20456152.195   109234670.420    20456151.281    20456155.012    84960372.211  
G22  24785274.813   130247499.063    24785276.809   101491566.712                  
G08  23077211.164   121271537.082    23077213.852    94497349.723                  
G15  20592427.508   108213901.106    20592430.402    84322567.150    20592430.395  
G27  22334115.734   117366559.338    22334119.375    91454520.611                  
G28  21466732.570   112808366.432    21466735.613    87902721.622                  
R14  19359334.430   103196145.141    19359333.750    19359340.027    80263720.187  
R03  23723637.742   126994384.669    23723635.773    23723640.566    98773490.085  
> 2010 01 01 00 01 00.0000000  0 14                     
G09  22634741.563   118946355.513    22634746.004    92685522.647                  
G17  24542983.430   128974637.224    24542987.949   100499426.214    24542987.348  
G18  22901367.656   120347465.193    22901370.059    93777280.135                  
G05  25207577.688   132466898.344    25207582.676   103220816.378    25207582.496  
R15  22705613.586   121331929.433    22705612.672    22705618.359    94369310.695  
G19  25069283.945   131739954.215                                                  
R13  20471238.984   109315233.969    20471238.070    20471242.031    85023032.751  
G22  24769214.617   130163102.675    24769216.547   101425803.263                  
G08  23095844.594   121369459.063    23095848.473    94573652.538                  
G15  20594045.602   108222406.792    20594048.902    84329194.951    20594048.813  
G27  22320812.039   117296648.936    22320815.891    91400044.978                  
G28  21471854.094   112835279.017    21471856.957    87923692.478                  
R14  19353315.258   103164060.567    19353315.168    19353321.270    80238765.516  
R03  23749947.195   127135217.998    23749946.516    23749950.590    98883027.074  
> 2010 01 01 00 02 00.0000000  0 14                     
G09  22592914.383   118726554.227    22592918.883    92514249.030                  
G17  24504269.992   128771199.931    24504274.449   100340903.637    24504274.219  
G18  22886841.430   120271129.564    22886843.750    93717797.835                  
G05  25251462.641   132697516.995    25251468.004   103400519.150    25251468.301  
R15  22662970.359   121104058.460    22662969.680    22662975.098    94192077.830  
G19  25098336.484   131892602.9701                                                 
R13  20501628.148   109477509.425    20501627.586    20501631.547    85149247.010  
G22  24737285.086   129995312.391    24737287.852   101295057.626                  
G08  23133225.102   121565899.474    23133229.941    94726722.965                  
G15  20597598.141   108241073.253    20597601.332    84343740.217    20597601.363  
G27  22294343.805   117157557.442    22294347.895    91291662.023                  
G28  21482380.078   112890592.940    21482382.707    87966794.250                  
R14  19341585.344   103101534.944    19341584.781    19341591.145    80190134.474  
R03  23802606.867   127417106.803    23802604.898    23802609.840    99102273.838  
> 2010 01 01 00 02 30.0000000  0 14                     
G09  22572065.586   118616992.226    22572069.375    92428876.087                  
G17  24484955.672   128669697.316    24484959.805   100261810.695    24484959.195  
G18  22879734.078   120233783.012    22879736.930    93688696.621                  
G05  25273403.328   132812817.358    25273408.559   103490363.588    25273409.102  
R15  22641699.133   120990394.786    22641699.043    22641704.172    94103672.812  
G19  25112974.117   131969527.1631                                                 
R13  20516929.211   109559217.104    20516928.180    20516932.750    85212797.421  
G22  24721417.539   129911923.707    24721419.113   101230079.435                  
G08  23151972.055   121664414.495    23151976.672    94803487.899                  
G15  20599531.508   108251234.089    20599534.645    84351657.747    20599534.867  
G27  22281179.313   117088378.064    22281183.258    91237756.037                  
G28  21487784.188   112918992.143    21487786.594    87988923.503                  
R14  19335874.867   103071094.887    19335874.188    19335880.871    80166458.874  
R03  23828955.148   127558154.996    23828953.297    23828958.414    99211977.944  
> 2010 01 01 00 03 00.0000000  0 12                     
G09  22551260.094   118507659.271    22551263.199    92343681.595                  
G17  24465668.594   128568343.380    24465672.824   100182833.636    24465672.309  
G18  22872732.203   120196986.761    22872735.207    93660024.215                  
R15  22620463.648   120876914.865    22620461.797    22620466.570    94015410.687  
R13  20532300.867   109641302.627    20532299.836    20532304.613    85276641.700  
G22  24705613.797   129828876.902    24705615.594   101165367.634                  
G08  23170757.016   121763124.786    23170760.047    94880404.976                  
G15  20601570.320   108261947.779    20601573.188    84360006.070    20601573.598  
G27  22268061.492   117019444.931    22268065.969    91184041.913                  
G28  21493282.648   112947885.383    21493284.934    88011437.719                  
R14  19330267.945   103041204.747    19330267.973    19330274.734    80143210.986  
R03  23855316.391   127699268.460    23855315.828    23855320.516    99321732.837  
> 2010 01 01 00 03 30.0000000  0 12                     
G09  22530498.531   118398556.141    22530501.750    92258666.167                  
G17  24446409.922   128467139.744    24446413.754   100103973.667    24446414.238  
G18  22865834.617   120160740.489    22865837.496    93631780.369                  
R15  22599261.633   120763619.783    22599260.602    22599264.398    93927292.351  
R13  20547743.836   109723762.957    20547743.039    20547747.008    85340777.486  
G22  24689876.063   129746172.654    24689877.441   101100922.757                  
G08  23189577.688   121862028.115    23189581.719    94957472.441                  
G15  20603714.031   108273212.958    20603717.129    84368784.122    20603717.531  
G27  22254991.023   116950757.400    22254995.711    91130519.177                  
G28  21498874.430   112977270.181    21498876.516    88034334.974                  
R14  19324763.594   103011863.871    19324762.680    19324769.211    80120390.310  
R03  23881687.758   127840442.300    23881688.488    23881692.898    99431534.703  
> 2010 01 01 00 04 00.0000000  0 12                     
G09  22509781.352   118289685.147    22509784.215    92173831.644                  
G17  24427181.070   128366090.243    24427184.645   100025233.797    24427184.750  
G18  22859042.406   120125046.266    22859045.184    93603966.697                  
R15  22578094.180   120650511.023    22578094.441    22578098.574    93839318.936  
R13  20563255.516   109806596.412    20563254.133    20563258.289    85405203.509  
G22  24674203.516   129663814.047    24674204.871   101036747.219                  
G08  23208434.219   121961122.804    23208438.324    95034689.042                  
G15  20605962.867   108285030.471    20605965.984    84377992.565    20605965.773  
G27  22241967.156   116882316.905    22241971.668    91077188.936                  
G28  21504559.258   113007145.883    21504562.344    88057614.748                  
R14  19319362.234   102983072.317    19319361.438    19319367.855    80097996.884  
R03  23908072.477   127981673.173    23908071.211    23908074.727    99541380.926  
> 2010 01 01 00 04 30.0000000  0 12                     
G09  22489108.227   118181048.507    22489111.691    92089179.725                  
G17  24407981.641   128265197.238    24407985.508    99946615.894    24407985.445  
G18  22852355.531   120089905.169    22852358.465    93576584.024                  
R15  22556963.875   120537590.815    22556962.609    22556967.535    93751492.148  
R13  20578837.195   109889800.783    20578836.047    20578840.020    85469918.015  
G22  24658597.477   129581803.544    24658598.738   100972842.913                  
G08  23227326.695   122060407.189    23227331.539    95112053.519                  
G15  20608316.641   108297399.771    20608319.797    84387630.973    20608319.801  
G27  22228990.414   116814124.039    22228995.129    91024051.658                  
G28  21510337.953   113037511.480    21510340.793    88081276.260                  
R14  19314064.844   102954832.151    19314063.813    19314070.578    80076032.314  
R03  23934464.352   128122957.417    23934465.434    23934468.246    99651268.639  
> 2010 01 01 00 05 00.0000000  0 12                     
G09  22468480.594   118072647.935    22468483.922    92004711.751                  
G17  24388812.188   128164463.705    24388816.609    99868122.236    24388816.305  
G18  22845773.555   120055318.311    22845776.488    93549633.226                  
R15  22535867.313   120424859.836    22535866.633    22535871.430    93663812.536  
R13  20594487.508   109973373.991    20594486.594    20594490.348    85534919.402  
G22  24643057.836   129500143.609    24643058.656   100909211.814                  
G08  23246255.875   122159880.008    23246261.848    95189564.764                  
G15  20610775.273   108310321.203    20610778.750    84397699.613    20610779.059  
G27  22216061.242   116746179.660    22216065.656    90971107.999                  
G28  21516209.023   113068365.692    21516212.047    88105318.509                  
R14  19308869.953   102927143.396    19308869.629    19308876.277    80054496.621  
R03  23960868.125   128264291.489    23960866.273    23960870.145    99761195.079  
> 2010 01 01 00 05 30.0000000  0 12                     
G09  22447897.875   117964485.396    22447901.813    91920429.250                  
G17  24369674.406   128063892.545    24369678.418    99789755.091    24369678.156  
G18  22839297.477   120021287.042    22839300.480    93523115.336                  
R15  22514807.391   120312320.820    22514806.477    22514810.199    93576282.253  
R13  20610206.258   110057314.088    20610205.461    20610209.648    85600206.148  
G22  24627586.555   129418836.486    24627586.105   100845855.635                  
G08  23265220.938   122259539.602    23265225.668    95267221.606                  
G15  20613339.398   108323794.683    20613342.715    84408198.422    20613342.715  
G27  22203179.094   116678484.721    22203183.574    90918358.698                  
G28  21522173.133   113099707.102    21522176.695    88129740.390                  
R14  19303779.531   102900005.933    19303778.969    19303785.180    80033389.708  
R03  23987278.773   128405671.666    23987276.688    23987280.625    99871157.421  
> 2010 01 01 00 06 00.0000000  0 12                     
G09  22427360.914   117856562.680    22427365.078    91836333.641                  
G17  24350567.602   127963486.709    24350572.430    99711516.771    24350571.781  
G18  22832927.344   119987812.748    22832930.383    93497031.469                  
R15  22493783.758   120199974.419    22493782.375    22493786.133    93488901.775  
R13  20625994.000   110141619.097    20625992.969    20625997.746    85665776.708  
G22  24612181.555   129337884.887    24612181.703   100782776.492                  
G08  23284221.422   122359384.748    23284225.480    95345022.981                  
G15  20616008.031   108337820.373    20616011.613    84419127.520    20616011.645  
G27  22190345.133   116611040.134    22190349.367    90865804.487                  
G28  21528229.422   113131534.636    21528233.141    88154541.070                  
R14  19298792.000   102873419.276    19298790.617    19298797.336    80012711.200  
R03  24013697.586   128547094.317    24013695.266    24013700.176    99981152.804  
> 2010 01 01 00 06 30.0000000  0 12                     
G09  22406869.930   117748881.480    22406873.855    91752426.219                  
G17  24331493.250   127863248.769    24331497.012    99633409.292    24331496.977  
G18  22826663.289   119954896.248    22826666.352    93471382.240                  
R15  22472795.711   120087822.442    22472794.914    22472799.023    93401672.509  
R13  20641849.109   110226286.169    20641847.961    20641852.617    85731628.868  
G22  24596844.813   129257290.601    24596845.316   100719975.749                  
G08  23303255.633   122459413.024    23303260.102    95422967.016                  
G15  20618782.453   108352397.486    20618785.953    84430486.297    20618785.570  
G27  22177558.414   116543846.180    22177562.980    90813445.565                  
G28  21534378.484   113163846.984    21534381.801    88179719.520                  
R14  19293907.789   102847384.872    19293907.344    19293913.418    79992462.223  
R03  24040122.445   128688555.432    24040122.121    24040126.457   100091178.119  
> 2010 01 01 00 07 00.0000000  0 12                     
G09  22386425.219   117641444.350    22386429.422    91668709.006                  
G17  24312450.633   127763182.412    24312455.434    99555435.534    24312455.313  
G18  22820506.719   119922539.147    22820509.020    93446168.905                  
R15  22451845.500   119975867.342    22451843.648    22451848.258    93314596.361  
R13  20657772.773   110311314.280    20657771.742    20657776.289    85797761.831  
G22  24581577.398   129177057.004    24581578.250   100657456.053                  
G08  23322325.445   122559623.934    23322329.477    95501053.426                  
G15  20621661.266   108367527.116    20621664.980    84442275.610    20621665.066  
G27  22164819.805   116476904.425    22164825.094    90761283.179                  
G28  21540619.672   113196643.051    21540622.652    88205274.900                  
R14  19289127.859   102821903.574    19289127.063    19289133.320    79972643.443  
R03  24066555.547   128830052.460    24066556.746    24066559.348   100201231.327  
> 2010 01 01 00 07 30.0000000  0 12                     
G09  22366027.469   117534253.200    22366031.223    91585183.436                  
G17  24293442.227   127663290.016    24293446.539    99477597.314    24293446.629  
G18  22814455.664   119890742.332    22814458.570    93421392.166                  
R15  22430931.531   119864109.709    22430930.383    22430934.680    93227673.808  
R13  20673764.336   110396701.454    20673762.133    20673766.520    85864174.067  
G22  24566378.078   129097185.834    24566379.566   100595218.755                  
G08  23341428.328   122660015.334    23341433.746    95579280.472                  
G15  20624645.469   108383208.542    20624649.031    84454494.896    20624649.402  
G27  22152129.414   116410215.296    22152133.594    90709317.645                  
G28  21546952.109   113229921.473    21546955.234    88231206.137                  
R14  19284451.672   102796975.120    19284450.875    19284457.105    79953254.655  
R03  24092994.125   128971581.070    24092993.680    24092997.875   100311309.127  
> 2010 01 01 00 08 00.0000000  0 12                     
G09  22345676.492   117427310.032    22345680.516    91501851.112                  
G17  24274466.539   127563574.749    24274471.422    99399897.090    24274471.234  
G18  22808512.039   119859506.928    22808514.270    93397052.888                  
R15  22410054.227   119752551.511    22410053.430    22410057.945    93140906.370  
R13  20689820.922   110482445.022    20689819.188    20689823.188    85930863.522  
G22  24551248.359   129017679.920    24551249.770   100533266.089                  
G08  23360566.977   122760586.038    23360572.082    95657647.245                  
G15  20627734.688   108399441.831    20627737.813    84467144.201    20627737.824  
G27  22139487.000   116343779.682    22139491.109    90657549.621                  
G28  21553376.031   113263680.828    21553379.605    88257512.132                  
R14  19279878.805   102772600.447    19279878.008    19279884.516    79934296.589  
R03  24119438.602   129113137.828    24119438.629    24119441.684   100421408.834  
> 2010 01 01 00 08 30.0000000  0 11                     
G09  22325373.883   117320616.326    22325377.375    91418713.169                  
G17  24255525.773   127464039.105    24255530.195    99322336.836    24255530.148  
G18  22802675.453   119828833.924    22802677.734    93373151.845                  
R15  22389215.156   119641194.248    22389214.594    22389219.094    93054295.211  
R13  20705943.609   110568542.888    20705941.992    20705946.547    85997828.533  
G22  24536188.211   128938540.944    24536189.883   100471599.354                  
G08  23379738.219   122861334.294    23379743.328    95736152.389                  
G15  20630929.031   108416226.536    20630931.988    84480223.183    20630932.109  
G27  22126892.758   116277598.203    22126896.918    90605979.635                  
G28  21559891.813   113297919.651    21559894.930    88284191.740                  
R14  19275410.078   102748779.736    19275409.398    19275415.387    79915769.367  
> 2010 01 01 00 09 00.0000000  0 11                     
G09  22305118.375   117214174.512    22305122.422    91335771.523                  
G17  24236620.070   127364686.390    24236623.840    99244919.141    24236623.148  
G18  22796945.469   119798724.717    22796947.918    93349690.110                  
R15  22368414.094   119530040.490    22368413.063    22368418.070    92967842.327  
R13  20722132.617   110654993.263    20722131.820    20722136.242    86065067.707  
G22  24521199.219   128859771.810    24521200.789   100410220.837                  
G08  23398943.031   122962258.303    23398948.586    95814794.409                  
G15  20634227.633   108433562.854    20634230.922    84493731.997    20634231.223  
G27  22114347.625   116211671.933    22114351.699    90554608.515                  
G28  21566497.977   113332637.107    21566501.332    88311244.308                  
R14  19271045.031   102725513.121    19271044.941    19271050.746    79897673.122  
> 2010 01 01 00 09 30.0000000  0 11                     
G09  22284911.414   117107986.834    22284915.617    91253027.895                  
G17  24217749.594   127265519.959    24217753.332    99167646.601    24217752.660  
G18  22791323.688   119769180.957    22791325.922    93326668.991                  
R15  22347652.164   119419091.286    22347650.898    22347655.563    92881548.564  
R13  20738387.617   110741794.835    20738386.586    20738391.375    86132580.034  
G22  24506280.555   128781375.216    24506282.352   100349132.629                  
G08  23418182.461   123063357.447    23418188.328    95893572.889                  
G15  20637631.500   108451451.221    20637635.020    84507670.969    20637635.125  
G27  22101851.156   116146002.340    22101855.113    90503437.402                  
G28  21573195.547   113367832.450    21573198.168    88338669.249                  
R14  19266784.602   102702801.445    19266783.805    19266790.191    79880008.487  
> 2010 01 01 00 10 00.0000000  0 11                     
G09  22264752.922   117002054.979    22264757.160    91170483.624                  
G17  24198914.008   127166542.291    24198918.613    99090521.150    24198918.762  
G18  22785809.234   119740203.239    22785811.285    93304088.939                  
R15  22326927.805   119308347.804    22326926.656    22326930.836    92795414.792  
R13  20754708.023   110828944.703    20754707.344    20754711.355    86200363.247  
G22  24491433.852   128703353.356    24491435.426   100288336.373                  
G08  23437454.008   123164629.907    23437459.953    95972486.478                  
G15  20641140.656   108469891.252    20641144.059    84522039.811    20641144.098  
G27  22089403.453   116080589.556    22089406.957    90452466.402                  
G28  21579983.742   113403503.834    21579986.180    88366465.142                  
R14  19262627.047   102680645.039    19262627.191    19262632.992    79862775.730  
> 2010 01 01 00 10 30.0000000  0 11                     
G09  22244643.625   116896380.260    22244647.883    91088139.709                  
G17  24180115.273   127067755.733    24180119.605    99013544.600    24180119.617  
G18  22780402.836   119711791.768    22780404.953    93281950.138                  
R15  22306241.578   119197811.642    22306240.898    22306245.641    92709442.249  
R13  20771093.719   110916440.270    20771092.453    20771096.367    86268415.338  
G22  24476658.297   128625707.775    24476659.758   100227833.316                  
G08  23456757.891   123266073.164    23456762.219    96051533.166                  
G15  20644754.531   108488881.665    20644758.004    84536837.528    20644757.879  
G27  22077004.914   116015433.644    22077008.699    90401695.553                  
G28  21586861.875   113439649.088    21586864.539    88394630.292                  
R14  19258575.328   102659043.281    19258574.883    19258580.922    79845974.364  
> 2010 01 01 00 11 00.0000000  0 11                     
G09  22224584.242   116790965.624    22224588.219    91005998.452                  
G17  24161354.070   126969164.136    24161357.875    98936719.978    24161357.730  
G18  22775104.453   119683948.379    22775106.359    93260253.992                  
R15  22285596.727   119087485.325    22285595.227    22285599.512    92623632.911  
R13  20787544.086   111004280.813    20787542.820    20787546.750    86336735.757  
G22  24461955.484   128548441.923    24461957.410   100167626.157                  
G08  23476093.398   123367686.613    23476100.063    96130712.410                  
G15  20648473.422   108508423.555    20648476.664    84552064.966    20648476.715  
G27  22064655.375   115950536.770    22064659.035    90351126.562                  
G28  21593830.570   113476268.088    21593833.012    88423164.581                  
R14  19254627.438   102637997.248    19254626.641    19254632.891    79829605.233  
> 2010 01 01 00 11 30.0000000  0 11                     
G09  22204574.180   116685812.676    22204578.230    90924061.104                  
G17  24142630.547   126870770.121    24142634.145    98860049.301    24142633.688  
G18  22769914.156   119656673.782    22769917.074    93239001.061                  
R15  22264989.648   118977369.632    22264988.383    22264992.715    92537987.397  
R13  20804057.578   111092463.761    20804056.430    20804060.586    86405322.503  
G22  24447324.945   128471558.103    24447326.160   100107716.669                  
G08  23495462.898   123469469.249    23495467.953    96210023.577                  
G15  20652296.930   108528516.303    20652300.113    84567721.631    20652300.195  
G27  22052355.648   115885899.351    22052358.945    90300759.748                  
G28  21600888.664   113513359.247    21600891.207    88452066.786                  
R14  19250783.477   102617507.367    19250783.031    19250789.348    79813668.665  
> 2010 01 01 00 12 00.0000000  0 11                     
G09  22184614.602   116580923.083    22184618.238    90842328.981                  
G17  24123944.734   126772575.950    24123948.137    98783534.370    24123947.961  
G18  22764832.023   119629968.529    22764834.715    93218191.773                  
R15  22244421.445   118867466.280    22244421.355    22244425.551    92452507.033  
R13  20820634.453   111180986.441    20820634.008    20820638.551    86474173.475  
G22  24432767.195   128395057.683    24432768.457   100048105.923                  
G08  23514864.828   123571418.099    23514867.848    96289464.152                  
G15  20656224.992   108549159.134    20656228.301    84583806.952    20656228.230  
G27  22040104.398   115821521.406    22040108.012    90250595.114                  
G28  21608036.477   113550920.325    21608039.148    88481335.163                  
R14  19247043.773   102597572.694    19247042.859    19247049.383    79798163.939  
> 2010 01 01 00 12 30.0000000  0 11                     
G09  22164705.289   116476300.165    22164709.285    90760804.657                  
G17  24105298.195   126674585.949    24105301.672    98707178.527    24105301.480  
G18  22759859.789   119603835.195    22759861.777    93197828.134                  
R15  22223894.977   118757777.444    22223893.828    22223898.773    92367193.505  
R13  20837275.805   111269848.222    20837274.773    20837278.773    86543288.188  
G22  24418283.219   128318944.490    24418284.762    99988796.955                  
G08  23534296.523   123673533.621    23534300.707    96369034.599                  
G15  20660258.117   108570353.132    20660261.723    84600321.745    20660261.586  
G27  22027903.820   115757405.121    22027907.422    90200634.378                  
G28  21615273.586   113588951.441    21615276.434    88510969.802                  
R14  19243408.172   102578195.143    19243408.434    19243414.469    79783092.505  
> 2010 01 01 00 13 00.0000000  0 11                     
G09  22144847.258   116371944.315    22144850.633    90679488.415                  
G17  24086689.836   126576801.449    24086693.820    98630982.838    24086693.305  
G18  22754995.281   119578273.061    22754997.766    93177909.568                  
R15  22203408.461   118648304.196    22203407.195    22203412.469    92282047.685  
R13  20853979.211   111359045.376    20853978.414    20853983.039    86612663.725  
G22  24403872.672   128243218.828    24403874.941    99929789.964                  
G08  23553759.195   123775812.215    23553762.684    96448732.242                  
G15  20664395.727   108592096.575    20664399.133    84617264.672    20664399.086  
G27  22015752.617   115693549.823    22015756.316    90150877.000                  
G28  21622599.563   113627449.467    21622602.805    88540968.263                  
R14  19239877.422   102559373.899    19239876.742    19239883.043    79768453.760  
> 2010 01 01 00 13 30.0000000  0 11                     
G09  22125040.180   116267858.111    22125044.238    90598382.289                  
G17  24068122.539   126479226.351    24068125.848    98554950.296    24068125.734  
G18  22750239.930   119553283.820    22750242.125    93158437.430                  
R15  22182962.523   118539048.300    22182961.258    22182966.656    92197070.929  
R13  20870746.063   111448577.081    20870745.266    20870749.922    86682299.494  
G22  24389536.680   128167884.338    24389538.785    99871087.801                  
G08  23573251.313   123878253.241    23573257.324    96528556.380                  
G15  20668638.070   108614389.906    20668641.414    84634636.093    20668641.699  
G27  22003651.148   115629957.200    22003654.742    90101324.320                  
G28  21630014.148   113666414.121    21630017.504    88571330.330                  
R14  19236451.414   102541109.800    19236450.852    19236457.344    79754248.352  
> 2010 01 01 00 14 00.0000000  0 11                     
G09  22105285.086   116164044.244    22105288.496    90517488.374                  
G17  24049594.578   126381863.794    24049598.152    98479083.368    24049598.617  
G18  22745593.711   119528868.338    22745596.301    93139412.376                  
R15  22162557.234   118430012.051    22162556.910    22162562.023    92112265.008  
R13  20887574.508   111538441.363    20887573.594    20887577.383    86752193.947  
G22  24375276.086   128092943.667    24375277.930    99812692.484                  
G08  23592775.625   123980855.518    23592781.121    96608506.224                  
G15  20672984.875   108637233.137    20672988.750    84652436.002    20672988.758  
G27  21991600.336   115566628.465    21991603.859    90051977.245                  
G28  21637517.547   113705844.153    21637521.039    88602055.029                  
R14  19233129.727   102523403.465    19233128.813    19233135.367    79740476.765  
> 2010 01 01 00 14 30.0000000  0 11                     
G09  22085582.211   116060503.940    22085585.754    90436807.633                  
G17  24031108.484   126284716.229    24031111.941    98403383.988    24031111.438  
G18  22741056.828   119505027.541    22741059.512    93120835.133                  
R15  22142195.203   118321197.007    22142194.172    22142197.988    92027631.111  
R13  20904464.953   111628635.822    20904463.805    20904468.117    86822345.180  
G22  24361091.445   128018398.627    24361092.879    99754605.430                  
G08  23612332.977   124083617.622    23612336.234    96688580.543                  
G15  20677436.203   108660625.566    20677440.125    84670663.853    20677439.871  
G27  21979599.508   115503564.066    21979603.285    90002836.155                  
G28  21645108.859   113745737.797    21645112.461    88633140.980                  
R14  19229912.609   102506254.386    19229911.695    19229918.219    79727138.592  
> 2010 01 01 00 15 00.0000000  0 11                     
G09  22065931.617   115957239.446    22065935.176    90356341.813                  
G17  24012663.625   126187786.635    24012666.551    98327854.418    24012666.586  
G18  22736629.445   119481761.861    22736632.535    93102706.023                  
R15  22121873.234   118212604.620    22121872.672    22121876.883    91943170.395  
R13  20921416.922   111719158.584    20921415.773    20921421.797    86892751.783  
G22  24346981.977   127944251.410    24346983.367    99696828.353                  
G08  23631917.461   124186537.714    23631923.223    96768777.929                  
G15  20681992.461   108684566.942    20681996.434    84689319.453    20681996.211  
G27  21967649.211   115440764.566    21967652.879    89953901.487                  
G28  21652788.273   113786093.704    21652791.641    88664587.148                  
R14  19226799.719   102489662.797    19226798.922    19226805.836    79714234.022  
> 2010 01 01 00 15 30.0000000  0 11                     
G09  22046333.539   115854252.449    22046337.797    90276092.206                  
G17  23994260.250   126091077.669    23994263.852    98252496.778    23994264.016  
G18  22732311.883   119459072.260    22732314.891    93085025.802                  
R15  22101594.172   118104236.046    22101592.438    22101597.367    91858883.749  
R13  20938429.734   111810007.189    20938428.117    20938433.012    86963411.809  
G22  24332948.219   127870504.213    24332949.395    99639362.971                  
G08  23651531.633   124289614.376    23651536.027    96849097.439                  
G15  20686652.773   108709056.834    20686655.703    84708402.472    20686655.426  
G27  21955748.656   115378230.465    21955752.824    89905173.630                  
G28  21660555.602   113826910.411    21660558.609    88696392.363                  
R14  19223791.711   102473628.919    19223791.621    19223798.375    79701763.226  
> 2010 01 01 00 16 00.0000000  0 11                     
G09  22026789.000   115751544.942    22026792.758    90196060.403                  
G17  23975899.688   125994592.598    23975903.266    98177313.614    23975903.523  
G18  22728103.859   119436959.517    22728106.918    93067795.077                  
R15  22081355.617   117996093.098    22081355.527    22081360.000    91774772.624  
R13  20955503.781   111901179.928    20955501.813    20955506.469    87034323.913  
G22  24318990.313   127797159.853    24318992.301    99582211.510                  
G08  23671175.305   124392846.136    23671181.566    96929537.718                  
G15  20691417.469   108734094.949    20691420.563    84727912.673    20691420.516  
G27  21943899.867   115315962.907    21943903.867    89856653.464                  
G28  21668409.688   113868186.201    21668412.918    88728555.318                  
R14  19220888.555   102458152.798    19220888.230    19220894.707    79689726.253  
> 2010 01 01 00 16 30.0000000  0 11                     
G09  22007297.820   115649118.492    22007301.859    90116247.597                  
G17  23957582.094   125898333.847    23957586.195    98102306.796    23957585.867  
G18  22724005.906   119415424.144    22724009.070    93051014.254                  
R15  22061161.555   117888176.682    22061160.875    22061164.965    91690837.670  
R13  20972637.516   111992674.401    20972636.953    20972641.445    87105486.278  
G22  24305109.586   127724220.312    24305112.801    99525375.519                  
G08  23690850.297   124496230.823    23690855.434    97010097.198                  
G15  20696285.828   108759680.531    20696289.246    84747849.478    20696289.445  
G27  21932102.023   115253962.365    21932106.285    89808341.334                  
G28  21676351.633   113909919.516    21676354.375    88761074.784                  
R14  19218089.695   102443234.533    19218089.371    19218095.957    79678123.160  
> 2010 01 01 00 17 00.0000000  0 11                     
G09  21987860.766   115546976.627    21987864.867    90036656.551                  
G17  23939307.992   125802305.349    23939311.984    98027479.380    23939312.133  
G18  22720018.000   119394468.198    22720020.719    93034684.930                  
R15  22041009.531   117780490.345    22041009.207    22041012.957    91607081.645  
R13  20989832.180   112084489.751    20989830.914    20989835.656    87176898.222  
G22  24291307.305   127651688.325    24291310.855    99468857.092                  
G08  23710553.813   124599768.609    23710556.113    97090775.972                  
G15  20701259.477   108785814.450    20701262.480    84768213.556    20701262.602  
G27  21920354.516   115192230.759    21920359.059    89760238.792                  
G28  21684380.055   113952110.201    21684382.746    88793950.643                  
R14  19215396.125   102428875.134    19215395.328    19215401.816    79666954.745  
> 2010 01 01 00 17 30.0000000  0 11                     
G09  21968478.383   115445120.283    21968482.297    89957287.973                  
G17  23921078.984   125706509.235    23921083.250    97952833.063    23921083.070  
G18  22716140.109   119374091.352    22716143.371    93018806.852                  
R15  22020900.820   117673034.711    22020899.672    22020903.926    91523505.049  
R13  21007085.305   112176623.228    21007084.508    21007089.000    87248557.599  
G22  24277583.523   127579565.364    24277586.082    99412657.397                  
G08  23730283.727   124703456.635    23730288.957    97171571.732                  
G15  20706336.422   108812495.293    20706339.859    84789003.814    20706340.184  
G27  21908658.523   115130767.846    21908662.480    89712345.619                  
G28  21692495.203   113994755.416    21692498.016    88827180.695                  
R14  19212807.422   102415074.164    19212806.156    19212812.918    79656220.651  
> 2010 01 01 00 18 00.0000000  0 11                     
G09  21949149.828   115343551.917    21949154.699    89878143.813                  
G17  23902894.445   125610948.801    23902898.820    97878370.400    23902898.652  
G18  22712373.313   119354294.480    22712375.969    93003380.706                  
R15  22000835.664   117565811.651    22000834.867    22000839.484    91440109.376  
R13  21024398.688   112269072.862    21024397.773    21024400.699    87320462.855  
G22  24263937.477   127507854.048    24263939.719    99356778.457                  
G08  23750041.500   124807293.888    23750047.738    97252483.919                  
G15  20711517.508   108839722.729    20711521.281    84810219.982    20711521.402  
G27  21897013.742   115069574.757    21897018.008    89664662.701                  
G28  21700696.914   114037854.068    21700699.383    88860764.058                  
R14  19210322.258   102401832.363    19210322.168    19210329.406    79645921.490  
> 2010 01 01 00 18 30.0000000  0 11                     
G09  21929877.734   115242274.432    21929881.992    89799226.315                  
G17  23884755.836   125515627.603    23884759.547    97804094.161    23884758.930  
G18  22708717.023   119335079.079    22708719.906    92988407.639                  
R15  21980814.063   117458823.226    21980812.914    21980817.242    91356896.202  
R13  21041769.828   112361837.393    21041769.266    21041773.949    87392613.033  
G22  24250370.727   127436557.657    24250372.230    99301222.825                  
G08  23769831.391   124911280.288    23769836.176    97333512.213                  
G15  20716802.914   108867497.362    20716806.617    84831862.540    20716806.680  
G27  21885420.828   115008653.113    21885424.867    89617191.296                  
G28  21708984.516   114081405.656    21708987.191    88894700.372                  
R14  19207943.836   102389149.892    19207943.629    19207950.055    79636057.332  
> 2010 01 01 00 19 00.0000000  0 11                     
G09  21910661.047   115141288.902    21910665.387    89720536.301                  
G17  23866662.234   125420547.750    23866666.504    97730005.964    23866666.164  
G18  22705170.953   119316445.228    22705174.102    92973887.750                  
R15  21960836.297   117352070.207    21960835.500    21960840.129    91273866.135  
R13  21059200.750   112454914.308    21059199.484    21059203.801    87465006.193  
G22  24236882.930   127365677.486    24236884.359    99245991.534                  
G08  23789649.320   125015412.615    23789652.441    97414654.262                  
G15  20722192.352   108895817.864    20722195.969    84853930.454    20722196.012  
G27  21873878.945   114948002.970    21873884.008    89569931.460                  
G28  21717357.797   114125408.169    21717360.434    88928988.044                  
R14  19205669.852   102377026.597    19205668.938    19205675.980    79626628.108  
> 2010 01 01 00 19 30.0000000  0 11                     
G09  21891500.172   115040596.581    21891504.078    89642074.758                  
G17  23848615.125   125325711.354    23848619.832    97656107.506    23848619.676  
G18  22701735.680   119298392.986    22701738.438    92959821.051                  
R15  21940902.469   117245554.255    21940902.379    21940906.711    91191020.449  
R13  21076689.289   112548300.886    21076688.023    21076690.516    87537640.154  
G22  24223474.750   127295215.376    24223475.461    99191085.992                  
G08  23809491.406   125119689.052    23809493.918    97495908.587                  
G15  20727684.828   108924682.945    20727688.926    84876422.702    20727688.609  
G27  21862389.180   114887624.441    21862393.945    89522883.277                  
G28  21725816.258   114169858.833    21725819.758    88963624.930                  
R14  19203500.578   102365461.497    19203499.313    19203506.195    79617633.029  
> 2010 01 01 00 20 00.0000000  0 11                     
G09  21872395.219   114940200.203    21872398.836    89563843.820                  
G17  23830615.602   125231122.259    23830619.605    97582401.708    23830619.340  
G18  22698411.172   119280923.519    22698414.309    92946208.464                  
R15  21921014.953   117139277.379    21921013.453    21921017.781    91108360.683  
R13  21094234.516   112641995.862    21094233.719    21094238.781    87610513.994  
G22  24210145.891   127225173.841    24210146.777    99136508.179                  
G08  23829359.883   125224109.153    23829365.680    97577274.894                  
G15  20733281.531   108954093.189    20733285.199    84899339.766    20733285.129  
G27  21850951.922   114827519.367    21850956.836    89476048.162                  
G28  21734360.297   114214757.180    21734363.445    88998610.654                  
R14  19201436.148   102354455.705    19201435.000    19201441.500    79609072.964  
> 2010 01 01 00 20 30.0000000  0 11                     
G09  21853346.984   114840101.844    21853350.578    89485845.107                  
G17  23812663.141   125136783.014    23812667.895    97508890.603    23812667.711  
G18  22695198.086   119264037.488    22695201.023    92933050.511                  
R15  21901171.000   117033241.212    21901170.438    21901174.828    91025888.115  
R13  21111838.797   112735996.925    21111836.828    21111842.348    87683625.933  
G22  24196897.430   127155555.007    24196898.750    99082259.738                  
G08  23849257.336   125328671.121    23849261.824    97658751.815                  
G15  20738981.648   108984047.625    20738985.324    84922680.870    20738985.172  
G27  21839566.555   114767688.170    21839570.980    89429426.461                  
G28  21742988.609   114260101.491    21742992.340    89033943.879                  
R14  19199475.961   102344009.416    19199475.047    19199481.980    79600948.075  
> 2010 01 01 00 21 00.0000000  0 11                     
G09  21834356.047   114740302.910    21834359.402    89408079.703                  
G17  23794759.578   125042696.335    23794764.102    97435576.298    23794764.176  
G18  22692095.828   119247735.065    22692098.797    92920347.305                  
R15  21881373.789   116927447.347    21881372.992    21881376.563    90943603.997  
R13  21129498.484   112830301.572    21129497.688    21129501.246    87756973.993  
G22  24183730.531   127086360.525    24183731.656    99028341.948                  
G08  23869182.727   125433373.057    23869187.105    97740337.631                  
G15  20744784.789   109014545.311    20744789.086    84946445.286    20744789.031  
G27  21828232.961   114708130.940    21828237.355    89383018.235                  
G28  21751701.563   114305889.682    21751705.676    89069622.994                  
R14  19197620.570   102334122.063    19197620.246    19197626.938    79593257.900  
> 2010 01 01 00 21 30.0000000  0 11                     
G09  21815421.781   114640805.892    21815425.504    89330549.570                  
G17  23776904.227   124948865.762    23776907.891    97362461.555    23776908.281  
G18  22689104.555   119232016.695    22689107.656    92908099.221                  
R15  21861620.375   116821896.309    21861620.754    21861623.719    90861508.747  
R13  21147215.602   112924908.320    21147214.570    21147218.293    87830556.983  
G22  24170643.977   127017593.422    24170645.828    98974757.197                  
G08  23889133.117   125538213.284    23889137.031    97822031.311                  
G15  20750692.109   109045586.226    20750696.203    84970632.982    20750696.133  
G27  21816952.172   114648849.072    21816956.695    89336824.590                  
G28  21760498.969   114352120.512    21760502.914    89105647.012                  
R14  19195871.000   102324793.855    19195869.969    19195876.758    79586002.628  
> 2010 01 01 00 22 00.0000000  0 11                     
G09  21796546.125   114541612.589    21796550.219    89253256.101                  
G17  23759098.195   124855294.200    23759102.598    97289548.683    23759102.547  
G18  22686225.031   119216883.465    22686227.563    92896307.082                  
R15  21841914.352   116716591.189    21841914.262    21841917.574    90779604.778  
R13  21164988.344   113019815.491    21164986.961    21164991.832    87904373.666  
G22  24157639.789   126949255.792    24157641.297    98921507.104                  
G08  23909108.234   125643191.238    23909113.672    97903832.241                  
G15  20756702.180   109077169.943    20756706.527    84995243.653    20756706.293  
G27  21805723.875   114589843.524    21805728.082    89290846.249                  
G28  21769380.523   114398792.644    21769383.789    89142014.905                  
R14  19194225.164   102316024.860    19194224.840    19194231.496    79579182.295  
> 2010 01 01 00 22 30.0000000  0 11                     
G09  21777728.547   114442725.184    21777732.273    89176200.985                  
G17  23741341.773   124761983.687    23741345.902    97216839.212    23741345.734  
G18  22683456.727   119202335.868    22683459.211    92884971.289                  
R15  21822254.391   116611533.315    21822254.184    21822258.438    90697893.137  
R13  21182817.109   113115021.273    21182816.785    21182819.996    87978422.600  
G22  24144717.922   126881349.696    24144719.219    98868593.261                  
G08  23929111.508   125748305.277    23929116.898    97985739.297                  
G15  20762815.453   109109295.346    20762819.676    85020276.412    20762819.613  
G27  21794547.898   114531115.010    21794552.336    89245083.788                  
G28  21778345.633   114445904.697    21778348.840    89178725.593                  
R14  19192685.703   102307815.558    19192685.141    19192692.230    79572797.282  
> 2010 01 01 00 23 00.0000000  0 11                     
G09  21758969.852   114344145.812    21758973.188    89099385.890                  
G17  23723635.547   124668938.151    23723639.953    97144336.215    23723639.719  
G18  22680800.383   119188374.219    22680803.168    92874092.077                  
R15  21802641.945   116506724.264    21802640.797    21802644.941    90616375.004  
R13  21200701.539   113210523.258    21200700.977    21200704.109    88052701.889  
G22  24131878.273   126813877.232    24131879.652    98816017.311                  
G08  23949140.336   125853554.107    23949144.023    98067751.302                  
G15  20769031.734   109141962.478    20769035.914    85045731.309    20769035.879  
G27  21783425.141   114472664.199    21783429.230    89199537.710                  
G28  21787394.617   114493454.720    21787397.270    89215777.558                  
R14  19191249.836   102300165.402    19191249.512    19191256.141    79566847.147  
> 2010 01 01 00 23 30.0000000  0 11                     
G09  21740269.789   114245876.314    21740273.762    89022812.258                  
G17  23705980.406   124576160.073    23705984.949    97072041.631    23705984.750  
G18  22678254.664   119174999.126    22678257.402    92863669.923                  
R15  21783074.891   116402166.006    21783073.859    21783077.539    90535051.949  
R13  21218641.922   113306319.570    21218640.422    21218644.629    88127210.106  
G22  24119122.555   126746840.568    24119123.184    98763780.942                  
G08  23969194.383   125958936.035    23969198.617    98149866.979                  
G15  20775351.219   109175170.443    20775355.164    85071607.627    20775354.902  
G27  21772355.344   114414491.724    21772359.453    89154208.521                  
G28  21796526.484   114541441.580    21796528.844    89253169.925                  
R14  19189920.016   102293074.352    19189919.691    19189926.063    79561331.881  
> 2010 01 01 00 24 00.0000000  0 11                     
G09  21721628.727   114147918.867    21721632.777    88946481.780                  
G17  23688376.547   124483652.279    23688380.969    96999957.652    23688381.051  
G18  22675820.695   119162211.274    22675824.195    92853705.341                  
R15  21763555.078   116297859.868    21763554.754    21763558.355    90453924.961  
R13  21236635.484   113402408.401    21236635.277    21236640.141    88201945.870  
G22  24106448.539   126680241.874    24106450.270    98711885.847                  
G08  23989272.547   126064450.008    23989276.758    98232085.643                  
G15  20781772.836   109208918.801    20781777.145    85097905.040    20781777.531  
G27  21761338.297   114356598.611    21761342.883    89109097.011                  
G28  21805740.859   114589863.557    21805743.223    89290901.349                  
R14  19188694.406   102286543.162    19188695.020    19188701.688    79556252.058  
> 2010 01 01 00 24 30.0000000  0 11                     
G09  21703047.938   114050275.508    21703052.242    88870396.048                  
G17  23670825.078   124391417.244    23670829.504    96928086.205    23670829.355  
G18  22673499.438   119150010.330    22673502.160    92844198.107                  
R15  21744083.313   116193807.315    21744082.164    21744085.914    90372995.208  
R13  21254684.516   113498787.250    21254683.016    21254685.848    88276907.190  
G22  24093859.625   126614082.975    24093860.719    98660333.455                  
G08  24009375.227   126170093.896    24009379.996    98314405.506                  
G15  20788297.867   109243206.249    20788302.152    85124622.514    20788302.098  
G27  21750375.367   114298985.388    21750379.691    89064203.605                  
G28  21815037.422   114638718.537    21815040.398    89328970.171                  
R14  19187574.875   102280570.734    19187574.551    19187581.176    79551606.840  
> 2010 01 01 00 25 00.0000000  0 11                     
G09  21684527.523   113952948.255    21684531.672    88794556.628                  
G17  23653326.586   124299458.464    23653330.344    96856429.992    23653329.879  
G18  22671289.438   119138397.360    22671292.156    92835149.039                  
R15  21724658.492   116090010.239    21724656.992    21724661.281    90292264.169  
R13  21272787.469   113595454.775    21272786.203    21272789.879    88352092.994  
G22  24081353.539   126548366.705    24081355.102    98609125.957                  
G08  24029503.320   126275866.943    24029508.754    98396825.981                  
G15  20794925.344   109278032.865    20794929.418    85151760.118    20794929.207  
G27  21739465.281   114241653.233    21739469.773    89019529.205                  
G28  21824416.500   114688005.343    21824418.805    89367375.484                  
R14  19186558.906   102275157.854    19186558.582    19186565.246    79547396.828  
> 2010 01 01 00 25 30.0000000  0 11                     
G09  21666067.406   113855939.593    21666071.398    88718965.467                  
G17  23635879.953   124207778.604    23635883.949    96784991.137    23635884.227  
G18  22669191.828   119127372.964    22669194.172    92826558.590                  
R15  21705282.930   115986470.797    21705281.898    21705286.152    90211733.515  
R13  21290943.188   113692409.131    21290942.391    21290948.766    88427501.942  
G22  24068932.313   126483094.853    24068934.301    98558264.827                  
G08  24049655.453   126381767.247    24049659.957    98479345.722                  
G15  20801655.039   109313398.056    20801658.813    85179317.398    20801658.805  
G27  21728609.039   114184602.972    21728613.223    88975074.475                  
G28  21833877.102   114737722.668    21833880.039    89406116.255                  
R14  19185649.133   102270304.797    19185648.453    19185654.555    79543622.219  
> 2010 01 01 00 26 00.0000000  0 11                     
G09  21647667.891   113759250.817    21647672.348    88643623.577                  
G17  23618487.641   124116380.626    23618491.879    96713771.950    23618491.555  
G18  22667206.313   119116936.796    22667208.504    92818426.497                  
R15  21685954.953   115883189.269    21685954.156    21685959.125    90131403.459  
R13  21309153.313   113789647.752    21309151.813    21309156.453    88503131.977  
G22  24056596.078   126418269.467    24056598.395    98507751.559                  
G08  24069831.859   126487793.398    24069836.594    98561963.435                  
G15  20808486.836   109349300.228    20808491.023    85207293.099    20808490.918  
G27  21717806.703   114127835.189    21717810.375    88930839.840                  
G28  21843419.656   114787868.241    21843422.590    89445190.729                  
R14  19184843.727   102266010.376    19184843.164    19184849.461    79540282.113  
> 2010 01 01 00 26 30.0000000  0 11                     
G09  21629330.109   113662884.654    21629334.555    88568533.069                  
G17  23601149.109   124025267.796    23601153.625    96642774.946    23601153.063  
G18  22665332.195   119107089.924    22665334.891    92810753.615                  
R15  21666676.344   115780169.807    21666674.961    21666679.922    90051277.220  
R13  21327415.531   113887169.521    21327415.441    21327419.164    88578982.219  
G22  24044346.094   126353892.824    24044348.234    98457587.953                  
G08  24090032.188   126593944.339    24090037.121    98644678.382                  
G15  20815421.359   109385739.954    20815425.688    85235687.679    20815425.594  
G27  21707057.766   114071351.119    21707061.918    88886826.286                  
G28  21853042.648   114838441.339    21853046.293    89484598.348                  
R14  19184142.766   102262275.790    19184141.852    19184148.512    79537377.429  
> 2010 01 01 00 27 00.0000000  0 11                     
G09  21611053.859   113566842.873    21611058.055    88493695.325                  
G17  23583865.578   123934442.664    23583870.016    96572002.110    23583870.234  
G18  22663570.867   119097832.620    22663573.309    92803540.121                  
R15  21647446.492   115677412.152    21647445.578    21647450.527    89971354.614  
R13  21345730.938   113984972.058    21345729.906    21345734.504    88655050.868  
G22  24032181.852   126289966.958    24032183.145    98407775.588                  
G08  24110254.906   126700218.520    24110259.520    98727489.443                  
G15  20822457.414   109422716.143    20822461.676    85264500.284    20822461.664  
G27  21696363.172   114015151.265    21696367.578    88843034.202                  
G28  21862747.977   114889440.100    21862751.070    89524337.630                  
R14  19183547.055   102259100.292    19183546.730    19183552.746    79534907.607  
> 2010 01 01 00 27 30.0000000  0 11                     
G09  21592839.664   113471126.974    21592844.480    88419111.516                  
G17  23566637.445   123843907.475    23566641.754    96501455.215    23566641.758  
G18  22661921.219   119089164.501    22661923.762    92796785.745                  
R15  21628265.680   115574917.814    21628265.355    21628270.020    89891636.808  
R13  21364098.648   114083053.165    21364097.734    21364101.324    88731336.164  
G22  24020103.648   126226493.504    24020104.660    98358315.732                  
G08  24130500.625   126806613.968    24130506.602    98810394.961                  
G15  20829595.945   109460227.240    20829600.145    85293729.691    20829600.063  
G27  21685723.273   113959235.920    21685727.543    88799463.815                  
G28  21872533.531   114940861.789    21872536.234    89564406.478                  
R14  19183056.141   102256483.080    19183055.578    19183061.641    79532871.999  
> 2010 01 01 00 28 00.0000000  0 11                     
G09  21574688.352   113375739.421    21574692.613    88344783.550                  
G17  23549464.656   123753665.541    23549469.512    96431136.828    23549469.227  
G18  22660383.906   119081086.197    22660386.102    92790490.961                  
R15  21609134.578   115472688.520    21609134.723    21609138.871    89812125.156  
R13  21382518.219   114181410.897    21382517.188    21382521.016    88807836.609  
G22  24008110.727   126163474.932    24008112.074    98309210.334                  
G08  24150771.789   126913130.257    24150775.465    98893394.646                  
G15  20836835.258   109498272.786    20836839.891    85323375.556    20836839.539  
G27  21675136.867   113903606.206    21675141.371    88756115.999                  
G28  21882398.789   114992705.474    21882402.031    89604804.148                  
R14  19182670.172   102254424.845    19182669.965    19182676.082    79531271.149  
> 2010 01 01 00 28 30.0000000  0 11                     
G09  21556599.719   113280682.152    21556603.684    88270712.957                  
G17  23532349.242   123663719.862    23532353.141    96361049.275    23532353.176  
G18  22658958.719   119073597.773    22658961.016    92784655.817                  
R15  21590054.438   115370726.666    21590053.523    21590057.324    89732821.513  
R13  21400988.406   114280043.657    21400987.375    21400991.379    88884550.972  
G22  23996205.859   126100913.055    23996206.605    98260460.791                  
G08  24171062.555   127019765.268    24171067.863    98976486.813                  
G15  20844176.641   109536852.239    20844180.914    85353437.449    20844180.723  
