     3.04           OBSERVATION DATA    M: Mixed            RINEX VERSION / TYPE
CONVBIN 2.4.3                           20220111 154032 UTC PGM / RUN BY / DATE 
format: RINEX                                               COMMENT             
log: opec0020.10o                                           COMMENT             
                                                            MARKER NAME         
                                                            MARKER NUMBER       
                                                            MARKER TYPE         
                                                            OBSERVER / AGENCY   
                                                            REC # / TYPE / VERS 
                                                            ANT # / TYPE        
  3149785.9550   598260.8930  5495348.4880                  APPROX POSITION XYZ 
        0.0000        0.0000        0.0000                  ANTENNA: DELTA H/E/N
G    9 C1C L1C D1C S1C C2W L2W D2W S2W C2X                  SYS / # / OBS TYPES 
R    9 C1C L1C D1C S1C C1P C2P L2P D2P S2P                  SYS / # / OBS TYPES 
  2010    01    02    00    00   00.0000000     GPS         TIME OF FIRST OBS   
  2010    01    02    02    10   00.0000000     GPS         TIME OF LAST OBS    
G L1C                                                       SYS / PHASE SHIFT   
G L2W  0.00000                                              SYS / PHASE SHIFT   
R L1C                                                       SYS / PHASE SHIFT   
R L2P  0.00000                                              SYS / PHASE SHIFT   
 24 R01  1 R02 -4 R03  5 R04  6 R05  1 R06 -4 R07  5 R08  6 GLONASS SLOT / FRQ # 
    R09 -2 R10 -7 R11 -5 R12 -1 R13 -2 R14 -7 R15  0 R16 -1 GLONASS SLOT / FRQ # 
    R17  4 R18 -3 R19  3 R20  2 R21  4 R22 -3 R23  3 R24  2 GLONASS SLOT / FRQ # 
 C1C    0.000 C1P    0.000 C2C    0.000 C2P    0.000        GLONASS COD/PHS/BIS 
                                                            END OF HEADER       
> 2010 01 02 00 00 00.0000000  0 10                     
G15  20606271.313   108286661.3571       -405.371          49.000    20606274.098    84379253.9901       -315.874          43.000    20606274.230  
G09  22503730.172   118257879.3531       3622.719          47.000    22503733.457    92149039.2501       2822.898          32.000                  
G17  24425817.969   128358825.7851       3365.840          42.000    24425822.270   100019661.8131       2622.732          26.000    24425823.219  
G22  24671186.578   129647923.9061       2737.070          45.000    24671187.551   101024385.8821       2132.782          27.000                  
G08  23209073.859   121964385.0511      -3306.727          39.000    23209078.613    95037311.6281      -2576.670          22.000                  
G28  21505956.766   113014456.9721      -1007.223          51.000    21505959.199    88063334.9981       -784.849          40.000                  
R15  19303140.711   103150062.0921        984.309          51.000    19303140.031    19303144.328    80227906.1231        766.994          49.000  
G18  22857731.469   120118150.0701       1176.684          46.000    22857733.832    93598602.4811        916.896          31.000                  
G27  22239819.836   116871189.4581       2275.703          48.000    22239824.289    91068371.6551       1773.275          37.000                  
R14  20606413.055   109843778.7881      -2843.461          53.000    20606412.023    20606418.137    85434081.8811      -2215.684          48.000  
> 2010 01 02 00 00 01.0000000  0 10                     
G15  20606348.172   108287066.983        -405.980          49.000    20606351.113    84379570.062        -316.348          43.000    20606351.242  
G09  22503040.656   118254256.670        3622.566          47.000    22503044.621    92146216.377        2822.779          32.000                  
G17  24425177.336   128355460.018        3365.645          42.000    24425181.770   100017039.136        2622.580          27.000    24425182.328  
G22  24670665.445   129645187.033        2736.563          45.000    24670666.652   101022253.251        2132.386          27.000                  
G08  23209704.008   121967691.831       -3306.953          40.000    23209707.586    95039888.327       -2576.847          22.000                  
G28  21506148.430   113015464.448       -1007.699          51.000    21506150.938    88064120.045        -785.220          41.000                  
R15  19302956.641   103149078.014         983.711          51.000    19302955.961    19302959.871    80227140.725         766.528          49.000  
G18  22857507.563   120116973.647        1176.090          46.000    22857510.113    93597685.789         916.434          31.000                  
G27  22239386.930   116868913.812        2275.504          48.000    22239391.188    91066598.426        1773.120          38.000                  
R14  20606946.203   109846622.395       -2843.863          53.000    20606945.758    20606951.672    85436293.571       -2215.997          48.000  
> 2010 01 02 00 00 02.0000000  0 10                     
G15  20606425.391   108287473.100        -406.664          49.000    20606428.445    84379886.512        -316.881          43.000    20606428.609  
G09  22502351.148   118250634.169        3622.203          47.000    22502355.102    92143393.652        2822.496          32.000                  
G17  24424537.305   128352094.321        3365.395          42.000    24424541.508   100014416.507        2622.385          27.000    24424542.305  
G22  24670144.992   129642450.415        2736.188          45.000    24670146.145   101020120.826        2132.094          27.000                  
G08  23210332.789   121970998.719       -3307.152          39.000    23210337.113    95042465.125       -2577.002          22.000                  
G28  21506340.273   113016472.369       -1008.418          51.000    21506342.508    88064905.442        -785.780          41.000                  
R15  19302772.086   103148094.457         983.043          52.000    19302771.762    19302775.801    80226375.739         766.008          49.000  
G18  22857284.344   120115797.753        1175.355          46.000    22857286.180    93596769.506         915.861          30.000                  
G27  22238954.039   116866638.370        2275.105          49.000    22238958.039    91064825.355        1772.809          38.000                  
R14  20607480.047   109849466.313       -2844.332          53.000    20607479.133    20607485.133    85438505.503       -2216.363          48.000  
> 2010 01 02 00 00 03.0000000  0 10                     
G15  20606503.000   108287879.889        -407.012          49.000    20606506.020    84380203.490        -317.152          43.000    20606506.035  
G09  22501661.969   118247011.942        3622.207          47.000    22501665.992    92140571.140        2822.499          32.000                  
G17  24423896.852   128348728.827        3365.504          42.000    24423900.934   100011794.043        2622.470          27.000    24423901.879  
G22  24669624.094   129639714.229        2735.992          45.000    24669625.309   101017988.731        2131.942          26.000                  
G08  23210961.992   121974305.856       -3307.250          39.000    23210966.359    95045042.115       -2577.078          22.000                  
G28  21506531.875   113017480.866       -1008.684          52.000    21506534.656    88065691.285        -785.987          41.000                  
R15  19302588.500   103147111.511         982.695          52.000    19302587.586    19302591.559    80225611.226         765.737          49.000  
G18  22857060.391   120114622.502        1174.977          45.000    22857062.391    93595853.730         915.566          31.000                  
G27  22238521.234   116864363.209        2275.094          49.000    22238525.137    91063052.504        1772.800          38.000                  
R14  20608013.688   109852310.642       -2844.441          53.000    20608013.008    20608018.875    85440717.755       -2216.448          48.000  
> 2010 01 02 00 00 04.0000000  0 10                     
G15  20606580.680   108288287.346        -407.707          49.000    20606583.410    84380520.990        -317.694          43.000    20606583.563  
G09  22500972.656   118243390.060        3621.836          47.000    22500976.484    92137748.893        2822.210          32.000                  
G17  24423256.945   128345363.558        3365.191          43.000    24423261.063   100009171.755        2622.227          27.000    24423261.691  
G22  24669103.828   129636978.488        2735.699          45.000    24669104.414   101015856.985        2131.714          26.000                  
G08  23211590.922   121977613.286       -3307.477          39.000    23211595.738    95047619.336       -2577.254          22.000                  
G28  21506724.203   113018489.969       -1009.281          51.000    21506726.867    88066477.603        -786.453          41.000                  
R15  19302404.297   103146129.254         982.020          51.000    19302403.734    19302407.742    80224847.245         765.210          49.000  
G18  22856837.109   120113447.929        1174.313          46.000    22856839.195    93594938.476         915.049          31.000                  
G27  22238088.320   116862088.408        2274.801          49.000    22238092.414    91061279.928        1772.572          38.000                  
R14  20608546.633   109855155.452       -2844.953          53.000    20608546.426    20608552.680    85442930.387       -2216.847          47.000  
> 2010 01 02 00 00 05.0000000  0 10                     
G15  20606657.883   108288695.349        -408.309          49.000    20606661.172    84380838.910        -318.163          43.000    20606661.148  
G09  22500283.852   118239768.359        3621.566          47.000    22500287.129    92134926.792        2822.000          32.000                  
G17  24422616.000   128341998.425        3365.090          43.000    24422620.074   100006549.575        2622.148          26.000    24422620.238  
G22  24668583.227   129634243.086        2735.238          45.000    24668584.156   101013725.501        2131.354          27.000                  
G08  23212221.195   121980920.852       -3307.633          38.000    23212225.121    95050196.651       -2577.376          22.000                  
G28  21506915.984   113019499.568       -1009.816          51.000    21506919.160    88067264.304        -786.870          41.000                  
R15  19302220.633   103145147.527         981.473          51.000    19302219.602    19302223.695    80224083.682         764.784          49.000  
G18  22856613.781   120112273.898        1173.797          46.000    22856616.035    93594023.646         914.647          31.000                  
G27  22237655.227   116859813.810        2274.480          49.000    22237659.691    91059507.517        1772.322          38.000                  
R14  20609080.930   109858000.576       -2845.309          53.000    20609079.781    20609085.887    85445143.259       -2217.124          47.000  
> 2010 01 02 00 00 06.0000000  0 10                     
G15  20606735.914   108289104.004        -408.828          49.000    20606739.090    84381157.347        -318.567          43.000    20606739.199  
G09  22499594.508   118236146.963        3621.348          47.000    22499598.098    92132104.925        2821.829          33.000                  
G17  24421976.305   128338633.513        3364.871          43.000    24421980.184   100003927.561        2621.978          25.000    24421980.191  
G22  24668062.922   129631508.117        2734.879          45.000    24668063.527   101011594.351        2131.074          27.000                  
G08  23212850.875   121984228.657       -3307.793          39.000    23212854.441    95052774.161       -2577.501          22.000                  
G28  21507108.148   113020509.739       -1010.344          51.000    21507110.695    88068051.451        -787.281          41.000                  
R15  19302036.641   103144166.490         980.824          52.000    19302036.551    19302040.789    80223320.656         764.279          49.000  
G18  22856389.828   120111100.531        1173.094          46.000    22856392.488    93593109.336         914.099          31.000                  
G27  22237222.609   116857539.530        2274.227          49.000    22237226.926    91057735.355        1772.125          38.000                  
R14  20609614.750   109860846.130       -2845.625          53.000    20609613.836    20609620.117    85447356.469       -2217.370          48.000  
> 2010 01 02 00 00 07.0000000  0 10                     
G15  20606813.570   108289513.151        -409.375          49.000    20606816.480    84381476.157        -318.993          43.000    20606816.555  
G09  22498905.375   118232525.705        3621.230          47.000    22498908.848    92129283.166        2821.738          33.000                  
G17  24421335.445   128335268.613        3364.922          43.000    24421339.703   100001305.561        2622.017          26.000    24421339.895  
G22  24667542.320   129628773.411        2734.539          46.000    24667543.027   101009463.411        2130.810          26.000                  
G08  23213480.383   121987536.569       -3307.930          39.000    23213484.234    95055351.744       -2577.608          22.000                  
G28  21507300.484   113021520.325       -1010.707          51.000    21507303.148    88068838.917        -787.564          41.000                  
R15  19301854.125   103143185.930         980.250          51.000    19301853.211    19301857.059    80222557.994         763.831          49.000  
G18  22856166.914   120109927.649        1172.676          47.000    22856169.676    93592195.398         913.773          31.000                  
G27  22236789.656   116855265.400        2274.051          49.000    22236794.281    91055963.300        1771.988          38.000                  
R14  20610148.625   109863691.963       -2846.004          53.000    20610148.770    20610154.617    85449569.897       -2217.665          47.000  
> 2010 01 02 00 00 08.0000000  0 10                     
G15  20606891.516   108289923.063        -410.156          49.000    20606894.703    84381795.570        -319.602          43.000    20606894.750  
G09  22498216.406   118228904.877        3620.797          47.000    22498220.016    92126461.745        2821.400          33.000                  
G17  24420694.953   128331904.046        3364.762          43.000    24420699.402    99998683.825        2621.892          25.000    24420699.465  
G22  24667021.875   129626039.222        2734.117          46.000    24667022.926   101007332.878        2130.481          26.000                  
G08  23214109.773   121990844.820       -3308.219          39.000    23214113.625    95057929.597       -2577.833          22.000                  
G28  21507492.945   113022531.594       -1011.332          51.000    21507495.676    88069626.918        -788.051          41.000                  
R15  19301670.555   103142206.120         979.629          51.000    19301669.758    19301673.879    80221795.921         763.347          49.000  
G18  22855943.344   120108755.538        1171.949          47.000    22855946.730    93591282.063         913.207          31.000                  
G27  22236356.992   116852991.696        2273.715          49.000    22236361.543    91054191.585        1771.726          38.000                  
R14  20610682.438   109866538.341       -2846.445          53.000    20610682.230    20610688.156    85451783.740       -2218.009          47.000  
> 2010 01 02 00 00 09.0000000  0 10                     
G15  20606969.898   108290333.559        -410.734          49.000    20606972.926    84382115.443        -320.053          43.000    20606972.945  
G09  22497527.469   118225284.269        3620.641          47.000    22497530.980    92123640.490        2821.278          32.000                  
G17  24420054.742   128328539.680        3364.422          43.000    24420059.043    99996062.246        2621.627          25.000    24420059.047  
G22  24666501.602   129623305.422        2733.715          45.000    24666502.578   101005202.648        2130.167          26.000                  
G08  23214739.297   121994153.295       -3308.422          40.000    23214743.301    95060507.627       -2577.991          22.000                  
G28  21507685.805   113023543.409       -1011.965          51.000    21507688.008    88070415.342        -788.544          41.000                  
R15  19301486.906   103141226.934         978.969          51.000    19301486.344    19301490.320    80221034.329         762.833          49.000  
G18  22855720.609   120107584.019        1171.434          47.000    22855723.543    93590369.189         912.805          31.000                  
G27  22235924.219   116850718.263        2273.426          48.000    22235929.047    91052420.078        1771.501          38.000                  
R14  20611215.984   109869385.102       -2846.855          53.000    20611216.129    20611222.246    85453997.888       -2218.329          47.000  
> 2010 01 02 00 00 10.0000000  0 10                     
G15  20607047.914   108290744.618        -411.375          49.000    20607051.074    84382435.745        -320.552          43.000    20607051.008  
G09  22496838.383   118221663.876        3620.313          47.000    22496842.078    92120819.405        2821.023          33.000                  
G17  24419414.516   128325175.397        3364.227          43.000    24419419.051    99993440.729        2621.475          25.000    24419419.152  
G22  24665981.336   129620571.960        2733.313          45.000    24665982.469   101003072.681        2129.854          27.000                  
G08  23215369.250   121997461.891       -3308.738          40.000    23215372.695    95063085.766       -2578.238          22.000                  
G28  21507878.523   113024555.693       -1012.531          51.000    21507880.863    88071204.135        -788.985          41.000                  
R15  19301304.133   103140248.293         978.340          51.000    19301303.453    19301307.570    80220273.170         762.343          49.000  
G18  22855498.023   120106413.075        1170.648          47.000    22855500.828    93589456.766         912.194          30.000                  
G27  22235491.953   116848445.031        2273.113          48.000    22235496.352    91050648.730        1771.257          38.000                  
R14  20611750.648   109872232.195       -2847.277          53.000    20611750.324    20611756.340    85456212.293       -2218.658          47.000  
> 2010 01 02 00 00 11.0000000  0 10                     
G15  20607126.297   108291156.291        -411.930          50.000    20607129.734    84382756.532        -320.984          43.000    20607129.605  
G09  22496149.773   118218043.743        3620.043          47.000    22496153.547    92117998.523        2820.813          33.000                  
G17  24418774.672   128321811.301        3364.016          43.000    24418778.785    99990819.357        2621.311          26.000    24418778.699  
G22  24665461.117   129617838.877        2732.945          46.000    24665462.414   101000943.009        2129.568          27.000                  
G08  23215998.930   122000770.695       -3308.852          41.000    23216002.520    95065664.053       -2578.326          22.000                  
G28  21508070.953   113025568.522       -1013.012          51.000    21508073.652    88071993.354        -789.360          41.000                  
R15  19301121.125   103139270.262         977.758          51.000    19301119.859    19301123.988    80219512.479         761.889          49.000  
G18  22855274.852   120105242.744        1170.059          47.000    22855278.137    93588544.818         911.734          31.000                  
G27  22235059.320   116846172.097        2272.777          48.000    22235063.926    91048877.612        1770.995          38.000                  
R14  20612285.047   109875079.692       -2847.707          53.000    20612284.250    20612290.254    85458427.011       -2218.992          47.000  
> 2010 01 02 00 00 12.0000000  0 10                     
G15  20607204.539   108291568.580        -412.547          50.000    20607207.836    84383077.795        -321.465          43.000    20607207.969  
G09  22495460.797   118214423.886        3619.723          47.000    22495464.543    92115177.855        2820.563          32.000                  
G17  24418134.594   128318447.377        3363.895          43.000    24418138.570    99988198.120        2621.217          26.000    24418138.699  
G22  24664941.180   129615106.201        2732.504          46.000    24664942.324   100998813.642        2129.224          27.000                  
G08  23216628.250   122004079.727       -3309.176          41.000    23216632.094    95068242.516       -2578.579          22.000                  
G28  21508263.844   113026581.900       -1013.621          51.000    21508266.477    88072783.003        -789.835          41.000                  
R15  19300938.133   103138292.869         977.117          51.000    19300936.867    19300941.066    80218752.282         761.390          49.000  
G18  22855052.898   120104073.037        1169.379          46.000    22855055.637    93587633.356         911.204          31.000                  
G27  22234626.578   116843899.418        2272.531          48.000    22234631.277    91047106.693        1770.804          38.000                  
R14  20612819.813   109877927.596       -2848.090          53.000    20612818.430    20612824.406    85460642.047       -2219.291          47.000  
> 2010 01 02 00 00 13.0000000  0 10                     
G15  20607283.500   108291981.434        -413.051          50.000    20607286.430    84383399.504        -321.858          43.000    20607286.578  
G09  22494772.219   118210804.241        3619.543          47.000    22494775.707    92112357.356        2820.423          33.000                  
G17  24417493.914   128315083.594        3363.801          43.000    24417498.512    99985576.987        2621.144          26.000    24417498.660  
G22  24664421.422   129612373.852        2732.184          46.000    24664422.633   100996684.536        2128.974          26.000                  
G08  23217258.023   122007388.930       -3309.285          41.000    23217262.199    95070821.120       -2578.664          22.000                  
G28  21508456.703   113027595.775       -1014.004          51.000    21508459.359    88073573.033        -790.133          41.000                  
R15  19300754.805   103137316.065         976.531          51.000    19300754.598    19300758.945    80217992.544         760.933          49.000  
G18  22854830.180   120102903.846        1168.973          46.000    22854833.016    93586722.297         910.888          31.000                  
G27  22234194.320   116841626.982        2272.320          48.000    22234198.816    91045335.963        1770.639          38.000                  
R14  20613352.984   109880775.857       -2848.484          53.000    20613352.539    20613358.648    85462857.360       -2219.598          47.000  
> 2010 01 02 00 00 14.0000000  0 10                     
G15  20607361.875   108292395.004        -413.840          49.000    20607365.227    84383721.765        -322.473          43.000    20607365.340  
G09  22494083.297   118207184.921        3619.230          47.000    22494086.887    92109537.105        2820.180          33.000                  
G17  24416854.289   128311720.070        3363.414          44.000    24416858.547    99982956.054        2620.842          26.000    24416858.523  
G22  24663901.680   129609641.981        2731.605          46.000    24663902.461   100994555.808        2128.524          26.000                  
G08  23217887.477   122010698.407       -3309.492          41.000    23217891.582    95073399.943       -2578.825          22.000                  
G28  21508649.984   113028610.278       -1014.715          51.000    21508652.773    88074363.554        -790.687          41.000                  
R15  19300572.766   103136339.967         975.738          51.000    19300572.086    19300576.145    80217233.359         760.316          49.000  
G18  22854607.750   120101735.393        1168.133          47.000    22854610.859    93585811.818         910.233          30.000                  
G27  22233761.758   116839354.896        2271.922          48.000    22233766.449    91043565.508        1770.329          39.000                  
R14  20613888.359   109883624.596       -2848.945          53.000    20613887.328    20613893.527    85465073.039       -2219.957          47.000  
> 2010 01 02 00 00 15.0000000  0 10                     
G15  20607440.922   108292809.058        -414.328          50.000    20607443.996    84384044.404        -322.853          43.000    20607444.121  
G09  22493394.602   118203565.770        3619.051          47.000    22493397.781    92106716.984        2820.040          33.000                  
G17  24416213.938   128308356.593        3363.430          44.000    24416218.223    99980335.165        2620.854          26.000    24416218.086  
G22  24663382.070   129606910.381        2731.418          46.000    24663382.488   100992427.292        2128.378          27.000                  
G08  23218518.203   122014007.988       -3309.672          42.000    23218521.648    95075978.830       -2578.965          22.000                  
G28  21508843.258   113029625.213       -1015.168          51.000    21508845.945    88075154.416        -791.040          41.000                  
R15  19300389.695   103135364.335         975.340          51.000    19300389.016    19300393.191    80216474.538         760.005          49.000  
G18  22854385.852   120100567.437        1167.703          47.000    22854387.797    93584901.723         909.899          31.000                  
G27  22233329.906   116837082.976        2271.902          48.000    22233334.402    91041795.186        1770.313          39.000                  
R14  20614422.711   109886473.595       -2849.160          54.000    20614421.914    20614428.121    85467288.930       -2220.125          47.000  
> 2010 01 02 00 00 16.0000000  0 10                     
G15  20607519.820   108293223.848        -415.020          50.000    20607522.617    84384367.613        -323.392          43.000    20607522.645  
G09  22492706.070   118199947.003        3618.676          47.000    22492709.414    92103897.167        2819.747          33.000                  
G17  24415574.203   128304993.427        3363.156          45.000    24415578.711    99977714.525        2620.641          26.000    24415578.504  
G22  24662862.578   129604179.307        2730.898          46.000    24662862.414   100990299.165        2127.973          27.000                  
G08  23219147.492   122017317.874       -3309.875          42.000    23219151.246    95078557.964       -2579.123          22.000                  
G28  21509036.484   113030640.809       -1015.801          52.000    21509038.859    88075945.789        -791.533          41.000                  
R15  19300207.797   103134389.449         974.645          50.000    19300206.766    19300210.750    80215716.288         759.463          49.000  
G18  22854163.484   120099400.200        1166.953          46.000    22854166.441    93583992.185         909.314          31.000                  
G27  22232897.773   116834811.456        2271.473          48.000    22232901.949    91040025.170        1769.979          38.000                  
R14  20614957.070   109889323.130       -2849.691          54.000    20614956.391    20614962.668    85469505.236       -2220.539          47.000  
> 2010 01 02 00 00 17.0000000  0 10                     
G15  20607598.930   108293639.244        -415.742          50.000    20607601.719    84384691.300        -323.955          43.000    20607601.695  
G09  22492017.461   118196328.457        3618.363          47.000    22492020.926    92101077.520        2819.504          33.000                  
G17  24414934.711   128301630.415        3362.848          44.000    24414938.734    99975093.995        2620.401          26.000    24414938.570  
G22  24662342.719   129601448.587        2730.465          46.000    24662342.898   100988171.325        2127.635          28.000                  
G08  23219777.055   122020627.983       -3310.336          41.000    23219780.793    95081137.283       -2579.483          22.000                  
G28  21509229.656   113031656.936       -1016.473          52.000    21509232.195    88076737.579        -792.057          41.000                  
R15  19300025.320   103133415.152         973.934          51.000    19300024.996    19300029.000    80214958.506         758.909          49.000  
G18  22853941.609   120098233.574        1166.262          46.000    22853944.332    93583083.125         908.775          32.000                  
G27  22232465.297   116832540.184        2271.070          48.000    22232469.570    91038255.345        1769.665          39.000                  
R14  20615491.359   109892173.024       -2850.191          53.000    20615491.152    20615497.043    85471721.828       -2220.928          47.000  
> 2010 01 02 00 00 18.0000000  0 10                     
G15  20607677.813   108294055.144        -416.160          50.000    20607681.340    84385015.374        -324.281          43.000    20607681.430  
G09  22491328.898   118192710.110        3618.289          47.000    22491332.719    92098258.033        2819.446          33.000                  
G17  24414294.578   128298267.486        3362.883          44.000    24414298.684    99972473.532        2620.428          27.000    24414298.820  
G22  24661823.523   129598718.178        2730.258          46.000    24661823.059   100986043.736        2127.474          27.000                  
G08  23220406.867   122023938.226       -3310.273          41.000    23220411.355    95083716.685       -2579.434          22.000                  
G28  21509423.094   113032673.502       -1016.828          52.000    21509425.992    88077529.707        -792.334          41.000                  
R15  19299842.664   103132441.404         973.461          51.000    19299842.219    19299846.395    80214201.149         758.541          49.000  
G18  22853719.594   120097067.463        1165.922          47.000    22853722.922    93582174.467         908.511          31.000                  
G27  22232033.250   116830269.118        2271.023          49.000    22232037.637    91036485.683        1769.629          38.000                  
R14  20616025.680   109895023.236       -2850.371          53.000    20616025.473    20616031.336    85473938.655       -2221.068          47.000  
> 2010 01 02 00 00 19.0000000  0 10                     
G15  20607757.203   108294471.730        -416.813          50.000    20607760.406    84385339.989        -324.789          43.000    20607760.430  
G09  22490640.680   118189092.054        3618.043          47.000    22490644.031    92095438.769        2819.254          33.000                  
G17  24413654.492   128294904.787        3362.773          44.000    24413658.648    99969853.234        2620.343          26.000    24413658.766  
G22  24661303.930   129595988.203        2729.902          46.000    24661304.191   100983916.482        2127.197          26.000                  
G08  23221036.859   122027248.719       -3310.586          41.000    23221040.820    95086296.290       -2579.677          22.000                  
G28  21509616.617   113033690.661       -1017.293          52.000    21509619.469    88078322.298        -792.696          41.000                  
R15  19299661.008   103131468.327         972.824          51.000    19299659.508    19299664.152    80213444.311         758.045          49.000  
G18  22853497.914   120095902.037        1165.254          47.000    22853500.934    93581266.347         907.990          31.000                  
G27  22231600.922   116827998.366        2270.668          48.000    22231605.359    91034716.266        1769.352          38.000                  
R14  20616560.320   109897873.889       -2850.793          53.000    20616560.465    20616566.488    85476155.831       -2221.397          47.000  
> 2010 01 02 00 00 20.0000000  0 10                     
G15  20607836.469   108294888.958        -417.359          50.000    20607839.652    84385665.102        -325.215          43.000    20607839.613  
G09  22489951.805   118185474.319        3617.746          47.000    22489955.715    92092619.749        2819.023          33.000                  
G17  24413014.086   128291542.325        3362.535          45.000    24413018.793    99967233.130        2620.157          26.000    24413018.953  
G22  24660784.188   129593258.666        2729.469          45.000    24660784.570   100981789.574        2126.859          27.000                  
G08  23221666.578   122030559.457       -3310.711          40.000    23221671.094    95088876.100       -2579.775          22.000                  
G28  21509810.195   113034708.414       -1017.902          52.000    21509812.648    88079115.352        -793.171          41.000                  
R15  19299479.398   103130495.926         972.227          51.000    19299478.602    19299482.754    80212688.001         757.579          49.000  
G18  22853275.969   120094737.270        1164.613          47.000    22853279.086    93580358.735         907.491          31.000                  
G27  22231169.000   116825727.927        2270.418          49.000    22231173.375    91032947.091        1769.157          38.000                  
R14  20617095.664   109900724.977       -2851.133          53.000    20617095.691    20617101.723    85478373.342       -2221.662          47.000  
> 2010 01 02 00 00 21.0000000  0 10                     
G15  20607916.078   108295306.768        -418.105          50.000    20607918.789    84385990.667        -325.796          43.000    20607918.887  
G09  22489263.336   118181856.809        3617.340          47.000    22489267.145    92089800.913        2818.706          33.000                  
G17  24412374.555   128288179.979        3362.227          44.000    24412379.309    99964613.113        2619.917          26.000    24412379.492  
G22  24660264.727   129590529.462        2728.988          45.000    24660265.449   100979662.923        2126.484          27.000                  
G08  23222296.891   122033870.368       -3311.074          41.000    23222301.133    95091456.021       -2580.058          22.000                  
G28  21510004.047   113035726.672       -1018.512          52.000    21510006.879    88079908.804        -793.646          41.000                  
R15  19299296.688   103129524.084         971.520          51.000    19299296.715    19299300.582    80211932.124         757.028          49.000  
G18  22853054.750   120093573.057        1163.941          47.000    22853057.516    93579451.553         906.967          30.000                  
G27  22230736.914   116823457.736        2270.043          49.000    22230741.426    91031178.116        1768.865          38.000                  
R14  20617630.477   109903576.423       -2851.703          53.000    20617630.621    20617636.613    85480591.133       -2222.106          47.000  
> 2010 01 02 00 00 22.0000000  0 10                     
G15  20607995.750   108295725.190        -418.676          50.000    20607998.906    84386316.710        -326.241          43.000    20607999.043  
G09  22488575.578   118178239.560        3617.102          47.000    22488578.488    92086982.278        2818.521          33.000                  
G17  24411734.531   128284817.811        3362.066          43.000    24411739.512    99961993.239        2619.792          27.000    24411739.570  
G22  24659745.328   129587800.663        2728.520          45.000    24659746.047   100977536.584        2126.119          26.000                  
G08  23222926.836   122037181.506       -3311.242          41.000    23222931.254    95094036.113       -2580.189          23.000                  
G28  21510198.094   113036745.477       -1019.109          52.000    21510200.516    88080702.677        -794.111          41.000                  
R15  19299114.805   103128552.883         970.859          51.000    19299114.598    19299118.594    80211176.744         756.514          49.000  
G18  22852833.328   120092409.509        1163.152          46.000    22852836.078    93578544.894         906.352          31.000                  
G27  22230304.953   116821187.838        2269.719          49.000    22230309.527    91029409.362        1768.612          38.000                  
R14  20618165.797   109906428.274       -2852.148          53.000    20618165.473    20618171.793    85482809.233       -2222.453          47.000  
> 2010 01 02 00 00 23.0000000  0 10                     
G15  20608075.195   108296144.242        -419.297          50.000    20608078.605    84386643.248        -326.725          43.000    20608078.871  
G09  22487887.281   118174622.575        3616.875          47.000    22487890.492    92084163.847        2818.344          33.000                  
G17  24411095.336   128281455.830        3361.910          43.000    24411099.406    99959373.508        2619.670          26.000    24411099.676  
G22  24659225.805   129585072.238        2728.258          45.000    24659226.840   100975410.530        2125.915          26.000                  
G08  23223557.063   122040492.830       -3311.395          41.000    23223561.625    95096616.367       -2580.307          22.000                  
G28  21510391.641   113037764.835       -1019.637          52.000    21510394.586    88081496.982        -794.522          41.000                  
R15  19298933.391   103127582.262         970.375          51.000    19298932.711    19298936.645    80210421.816         756.136          49.000  
G18  22852612.070   120091246.557        1162.598          46.000    22852614.426    93577638.697         905.920          31.000                  
G27  22229873.438   116818918.202        2269.523          49.000    22229877.727    91027640.815        1768.460          39.000                  
R14  20618700.734   109909280.500       -2852.375          53.000    20618700.055    20618706.590    85485027.632       -2222.630          47.000  
> 2010 01 02 00 00 24.0000000  0 10                     
G15  20608155.172   108296563.917        -420.004          49.000    20608158.281    84386970.261        -327.276          43.000    20608158.289  
G09  22487198.758   118171005.885        3616.508          47.000    22487202.129    92081345.653        2818.058          34.000                  
G17  24410455.406   128278094.043        3361.625          43.000    24410459.816    99956753.928        2619.448          26.000    24410459.770  
G22  24658706.930   129582344.248        2727.727          45.000    24658708.090   100973284.825        2125.501          26.000                  
G08  23224186.406   122043804.413       -3311.828          40.000    23224191.723    95099196.833       -2580.645          22.000                  
G28  21510585.961   113038784.750       -1020.270          51.000    21510588.715    88082291.721        -795.015          41.000                  
R15  19298752.367   103126612.269         969.621          51.000    19298751.453    19298755.656    80209667.379         755.549          49.000  
G18  22852391.102   120090084.232        1161.980          46.000    22852393.891    93576732.986         905.439          31.000                  
G27  22229441.273   116816648.884        2269.094          49.000    22229445.840    91025872.519        1768.125          39.000                  
R14  20619235.641   109912133.157       -2852.883          53.000    20619235.316    20619241.797    85487246.366       -2223.026          47.000  
> 2010 01 02 00 00 25.0000000  0 10                     
G15  20608235.281   108296984.138        -420.469          50.000    20608238.379    84387297.703        -327.638          43.000    20608238.488  
G09  22486510.875   118167389.384        3616.402          47.000    22486514.191    92078527.598        2817.976          34.000                  
G17  24409815.453   128274732.362        3361.688          44.000    24409820.027    99954134.455        2619.497          25.000    24409819.906  
G22  24658187.844   129579616.582        2727.477          44.000    24658188.688   100971159.385        2125.306          26.000                  
G08  23224816.906   122047116.140       -3311.816          40.000    23224821.750    95101777.414       -2580.636          22.000                  
G28  21510780.281   113039805.122       -1020.453          51.000    21510782.582    88083086.820        -795.158          41.000                  
R15  19298571.148   103125642.810         969.270          51.000    19298570.000    19298574.055    80208913.354         755.275          49.000  
G18  22852169.586   120088922.482        1161.582          46.000    22852172.375    93575827.728         905.129          31.000                  
G27  22229009.398   116814379.743        2269.168          49.000    22229013.863    91024104.353        1768.183          39.000                  
R14  20619770.625   109914986.136       -2853.125          53.000    20619770.301    20619776.598    85489465.349       -2223.214          47.000  
> 2010 01 02 00 00 26.0000000  0 10                     
G15  20608315.430   108297405.066        -421.258          50.000    20608318.430    84387625.698        -328.253          43.000    20608318.262  
G09  22485822.664   118163773.241        3616.012          47.000    22485825.832    92075709.828        2817.671          34.000                  
G17  24409176.297   128271370.938        3361.348          44.000    24409180.520    99951515.169        2619.232          25.000    24409180.234  
G22  24657669.156   129576889.374        2726.988          44.000    24657669.844   100969034.300        2124.926          26.000                  
G08  23225446.648   122050428.147       -3312.125          40.000    23225451.992    95104358.206       -2580.877          22.000                  
G28  21510974.406   113040826.155       -1021.270          51.000    21510977.090    88083882.427        -795.794          41.000                  
R15  19298389.125   103124674.063         968.383          51.000    19298388.445    19298392.434    80208159.885         754.584          49.000  
G18  22851948.469   120087761.441        1160.699          46.000    22851951.613    93574923.017         904.441          31.000                  
G27  22228577.742   116812110.998        2268.605          48.000    22228582.117    91022336.503        1767.745          38.000                  
R14  20620306.422   109917839.592       -2853.590          53.000    20620305.977    20620312.348    85491684.702       -2223.576          47.000  
> 2010 01 02 00 00 27.0000000  0 10                     
G15  20608395.789   108297826.573        -421.871          50.000    20608398.625    84387954.145        -328.731          43.000    20608398.809  
G09  22485134.273   118160157.307        3615.688          47.000    22485137.879    92072892.215        2817.419          34.000                  
G17  24408536.844   128268009.689        3361.063          44.000    24408540.988    99948896.025        2619.010          26.000    24408540.621  
G22  24657150.359   129574162.542        2726.621          44.000    24657151.215   100966909.498        2124.640          27.000                  
G08  23226077.289   122053740.334       -3312.320          40.000    23226082.188    95106939.118       -2581.029          22.000                  
G28  21511168.852   113041847.693       -1021.902          51.000    21511171.816    88084678.435        -796.288          41.000                  
R15  19298207.938   103123705.891         967.863          52.000    19298207.613    19298211.750    80207406.860         754.179          49.000  
G18  22851727.656   120086600.961        1160.074          46.000    22851730.586    93574018.747         903.954          31.000                  
G27  22228145.914   116809842.478        2268.301          48.000    22228150.918    91020568.822        1767.507          39.000                  
R14  20620841.711   109920693.418       -2854.070          53.000    20620841.148    20620847.281    85493904.348       -2223.951          47.000  
> 2010 01 02 00 00 28.0000000  0 10                     
G15  20608475.961   108298248.609        -422.352          50.000    20608478.969    84388283.004        -329.105          43.000    20608479.129  
G09  22484446.734   118156541.563        3615.676          47.000    22484449.789    92070074.753        2817.410          33.000                  
G17  24407896.836   128264648.509        3361.086          44.000    24407901.215    99946276.922        2619.028          26.000    24407900.707  
G22  24656631.516   129571436.005        2726.340          44.000    24656632.129   100964784.915        2124.421          25.000                  
G08  23226707.773   122057052.639       -3312.387          41.000    23226712.785    95109520.131       -2581.081          22.000                  
G28  21511363.469   113042869.687       -1022.305          51.000    21511366.117    88085474.794        -796.601          41.000                  
R15  19298027.453   103122738.259         967.332          51.000    19298026.305    19298030.379    80206654.257         753.765          49.000  
G18  22851507.094   120085441.011        1159.660          47.000    22851509.867    93573114.894         903.631          31.000                  
G27  22227714.219   116807574.157        2268.152          48.000    22227719.137    91018801.301        1767.391          38.000                  
R14  20621376.898   109923547.533       -2854.297          53.000    20621376.453    20621382.246    85496124.211       -2224.127          47.000  
> 2010 01 02 00 00 29.0000000  0 10                     
G15  20608556.555   108298671.383        -423.023          50.000    20608559.477    84388612.438        -329.629          43.000    20608559.625  
G09  22483758.234   118152926.220        3615.297          47.000    22483761.703    92067257.604        2817.115          34.000                  
G17  24407257.680   128261287.653        3360.828          45.000    24407261.723    99943658.077        2618.827          25.000    24407261.305  
G22  24656112.766   129568709.978        2726.027          44.000    24656113.684   100962660.740        2124.177          26.000                  
G08  23227338.477   122060365.286       -3312.676          40.000    23227342.660    95112101.395       -2581.306          22.000                  
G28  21511558.117   113043892.356       -1022.883          51.000    21511560.754    88086271.677        -797.052          41.000                  
R15  19297846.336   103121771.358         966.672          51.000    19297845.070    19297849.273    80205902.222         753.251          49.000  
G18  22851286.148   120084281.817        1159.035          46.000    22851289.316    93572211.627         903.144          31.000                  
G27  22227282.672   116805306.248        2267.836          48.000    22227287.289    91017034.101        1767.145          38.000                  
R14  20621912.414   109926402.200       -2854.770          52.000    20621912.324    20621918.160    85498344.509       -2224.496          47.000  
> 2010 01 02 00 00 30.0000000  0 10                     
G15  20608636.930   108299094.774        -423.695          49.000    20608639.789    84388942.350        -330.152          43.000    20608639.953  
G09  22483070.398   118149311.125        3614.910          47.000    22483073.730    92064440.647        2816.813          34.000                  
G17  24406618.008   128257926.968        3360.590          45.000    24406622.434    99941039.360        2618.641          26.000    24406621.809  
G22  24655593.922   129565984.344        2725.484          45.000    24655594.621   100960536.869        2123.754          26.000                  
G08  23227968.742   122063678.160       -3313.063          40.000    23227973.750    95114682.867       -2581.607          22.000                  
G28  21511752.633   113044915.542       -1023.406          52.000    21511755.129    88087068.963        -797.459          41.000                  
R15  19297665.547   103120805.056         965.973          51.000    19297664.867    19297669.125    80205150.659         752.706          49.000  
G18  22851066.055   120083123.229        1158.285          46.000    22851068.582    93571308.834         902.560          31.000                  
G27  22226851.414   116803038.578        2267.500          49.000    22226855.855    91015267.086        1766.883          38.000                  
R14  20622448.148   109929257.241       -2855.207          53.000    20622448.293    20622454.250    85500565.091       -2224.837          47.000  
> 2010 01 02 00 00 31.0000000  0 10                     
G15  20608717.641   108299518.699        -424.207          50.000    20608720.660    84389272.681        -330.551          43.000    20608720.813  
G09  22482382.594   118145696.218        3614.840          48.000    22482386.105    92061623.833        2816.758          34.000                  
G17  24405978.438   128254566.378        3360.574          45.000    24405982.500    99938420.706        2618.629          26.000    24405981.992  
G22  24655075.242   129563259.035        2725.207          45.000    24655075.902   100958413.252        2123.538          26.000                  
G08  23228599.727   122066991.149       -3313.031          40.000    23228603.949    95117264.418       -2581.583          22.000                  
G28  21511947.109   113045939.214       -1023.910          51.000    21511950.227    88087866.630        -797.852          41.000                  
R15  19297484.500   103119839.284         965.480          51.000    19297483.703    19297488.012    80204399.501         752.322          49.000  
G18  22850845.289   120081965.173        1157.781          46.000    22850848.703    93570406.447         902.167          31.000                  
G27  22226419.852   116800771.146        2267.277          49.000    22226424.563    91013500.258        1766.710          38.000                  
R14  20622984.258   109932112.596       -2855.535          53.000    20622983.578    20622989.754    85502785.927       -2225.092          47.000  
> 2010 01 02 00 00 32.0000000  0 10                     
G15  20608798.742   108299943.286        -424.906          50.000    20608801.379    84389603.528        -331.096          43.000    20608801.367  
G09  22481694.625   118142081.616        3614.527          48.000    22481698.184    92058807.262        2816.515          33.000                  
G17  24405338.813   128251206.025        3360.297          45.000    24405343.137    99935802.235        2618.413          27.000    24405343.215  
G22  24654556.367   129560534.150        2724.734          45.000    24654557.629   100956289.968        2123.170          24.000                  
G08  23229229.359   122070304.392       -3313.332          39.000    23229234.387    95119846.176       -2581.817          22.000                  
G28  21512142.203   113046963.452       -1024.469          52.000    21512145.434    88088664.739        -798.287          41.000                  
R15  19297303.945   103118874.174         964.723          51.000    19297302.680    19297307.207    80203648.861         751.732          49.000  
G18  22850625.586   120080807.788        1157.090          46.000    22850628.160    93569504.585         901.628          32.000                  
G27  22225988.461   116798504.013        2267.016          49.000    22225992.723    91011733.659        1766.506          38.000                  
R14  20623519.531   109934968.377       -2855.957          53.000    20623519.086    20623525.844    85505007.088       -2225.421          47.000  
> 2010 01 02 00 00 41.0000000  0 10                     
G15  20609530.469   108303792.117        -430.367          49.000    20609534.063    84392602.616        -335.351          43.000    20609534.094  
G09  22475506.188   118109562.055        3612.180          48.000    22475509.711    92033467.344        2814.686          34.000                  
G17  24399585.172   128220970.627        3358.766          43.000    24399590.027    99912242.182        2617.220          25.000    24399589.461  
G22  24649893.195   129536027.744        2721.262          45.000    24649893.605   100937194.053        2120.464          23.000                  
G08  23234907.672   122100132.951       -3315.086          40.000    23234910.965    95143089.169       -2583.184          22.000                  
G28  21513900.961   113056206.143       -1029.332          51.000    21513903.965    88095866.833        -802.077          41.000                  
R15  19295683.688   103110216.085         959.309          51.000    19295682.891    19295687.426    80196914.792         747.513          49.000  
G18  22848648.438   120070418.958        1151.563          46.000    22848651.375    93561409.400         897.321          30.000                  
G27  22222107.977   116778112.283        2264.531          49.000    22222112.328    90995844.003        1764.570          39.000                  
R14  20628344.750   109960688.238       -2859.480          52.000    20628344.305    20628350.758    85525011.416       -2228.167          47.000  
> 2010 01 02 00 00 44.0000000  0 10                     
G15  20609776.984   108305086.087        -432.379          50.000    20609780.250    84393610.905        -336.919          43.000    20609780.508  
G09  22473444.555   118098726.964        3611.109          47.000    22473448.336    92025024.425        2813.852          34.000                  
G17  24397668.148   128210895.356        3358.012          43.000    24397672.641    99904391.324        2616.633          26.000    24397671.965  
G22  24648340.117   129527865.948        2719.840          44.000    24648340.289   100930834.210        2119.356          24.000                  
G08  23236799.023   122110079.508       -3316.020          41.000    23236803.008    95150839.726       -2583.911          22.000                  
G28  21514489.383   113059296.788       -1031.098          51.000    21514492.109    88098275.128        -803.453          41.000                  
R15  19295145.828   103107341.080         957.332          52.000    19295145.383    19295149.395    80194678.679         745.973          49.000  
G18  22847991.297   120066967.098        1149.645          46.000    22847994.602    93558719.637         895.827          31.000                  
G27  22220815.641   116771320.030        2263.441          48.000    22220819.785    90990551.345        1763.721          38.000                  
R14  20629954.297   109969268.643       -2860.840          52.000    20629953.617    20629960.547    85531685.070       -2229.226          47.000  
> 2010 01 02 00 00 45.0000000  0 10                     
G15  20609859.453   108305518.616        -432.809          50.000    20609862.254    84393947.939        -337.253          43.000    20609862.473  
G09  22472757.906   118095115.747        3611.066          48.000    22472760.809    92022210.489        2813.818          34.000                  
G17  24397028.984   128207537.275        3357.996          44.000    24397033.844    99901774.643        2616.620          27.000    24397033.336  
G22  24647822.625   129525146.119        2719.691          44.000    24647822.621   100928714.863        2119.240          25.000                  
G08  23237430.375   122113395.431       -3316.047          41.000    23237434.664    95153423.555       -2583.933          23.000                  
G28  21514686.031   113060328.059       -1031.539          51.000    21514688.473    88099078.710        -803.797          41.000                  
R15  19294967.094   103106383.906         956.836          51.000    19294965.945    19294970.059    80193934.210         745.586          49.000  
G18  22847772.977   120065817.696        1149.055          47.000    22847775.762    93557823.995         895.367          31.000                  
G27  22220384.859   116769056.445        2263.426          48.000    22220388.906    90988787.507        1763.708          39.000                  
R14  20630490.688   109972129.541       -2861.117          52.000    20630490.242    20630496.926    85533910.212       -2229.442          47.000  
> 2010 01 02 00 00 46.0000000  0 10                     
G15  20609942.000   108305951.799        -433.578          50.000    20609944.848    84394285.485        -337.853          43.000    20609945.016  
G09  22472070.414   118091504.854        3610.637          48.000    22472073.488    92019396.808        2813.483          34.000                  
G17  24396389.703   128204179.422        3357.684          44.000    24396394.754    99899158.127        2616.377          26.000    24396394.176  
G22  24647305.000   129522426.719        2719.148          44.000    24647305.031   100926595.848        2118.817          25.000                  
G08  23238061.289   122116711.601       -3316.273          41.000    23238065.258    95156007.594       -2584.109          22.000                  
G28  21514881.914   113061359.932       -1032.211          51.000    21514884.824    88099882.771        -804.320          41.000                  
R15  19294787.109   103105427.372         956.129          52.000    19294786.664    19294791.031    80193190.239         745.036          49.000  
G18  22847554.203   120064668.941        1148.434          47.000    22847557.422    93556928.864         894.883          31.000                  
G27  22219954.172   116766793.207        2263.059          49.000    22219958.336    90987023.948        1763.422          38.000                  
R14  20631027.461   109974990.870       -2861.582          52.000    20631026.898    20631033.402    85536135.692       -2229.804          47.000  
> 2010 01 02 00 00 47.0000000  0 10                     
G15  20610024.109   108306385.407        -433.754          50.000    20610027.277    84394623.361        -337.990          43.000    20610027.543  
G09  22471383.477   118087894.058        3610.816          48.000    22471386.699    92016583.201        2813.623          34.000                  
G17  24395751.039   128200821.568        3357.824          44.000    24395755.633    99896541.616        2616.486          27.000    24395754.898  
G22  24646787.578   129519707.538        2719.203          44.000    24646787.984   100924477.015        2118.860          24.000                  
G08  23238692.102   122120027.810       -3316.098          41.000    23238696.633    95158591.661       -2583.972          22.000                  
G28  21515078.383   113062392.149       -1032.246          51.000    21515081.344    88100687.099        -804.348          41.000                  
R15  19294608.883   103104471.270         955.922          52.000    19294607.852    19294612.215    80192446.601         744.874          49.000  
