     3.04           OBSERVATION DATA    M: Mixed            RINEX VERSION / TYPE
CONVBIN 2.4.3                           20220228 163919 UTC PGM / RUN BY / DATE 
format: RINEX                                               COMMENT             
log: OPEC00NOR_S_20220010000_01D_30S_MO.rnx                 COMMENT             
                                                            MARKER NAME         
                                                            MARKER NUMBER       
                                                            MARKER TYPE         
                                                            OBSERVER / AGENCY   
5423R48819          TRIMBLE_NETR9                           REC # / TYPE / VERS 
31050604            TRM55971.00                             ANT # / TYPE        
  3149785.9652   598260.8822  5495348.4927                  APPROX POSITION XYZ 
        0.0000        0.0000        0.0000                  ANTENNA: DELTA H/E/N
G    9 C1C L1C C1P C2W L2W C2X L2X C5X L5X                  SYS / # / OBS TYPES 
R    8 C1C L1C C1P L1P C2P L2P C2C L2C                      SYS / # / OBS TYPES 
E    8 C1X L1X C7X L7X C5X L5X C8X L8X                      SYS / # / OBS TYPES 
C    6 C2X L2X C7X L7X C6X L6X                              SYS / # / OBS TYPES 
    30.000                                                  INTERVAL            
  2022    01    01    00    00   00.0000000     GPS         TIME OF FIRST OBS   
  2022    01    01    03    39   30.0000000     GPS         TIME OF LAST OBS    
G L1C                                                       SYS / PHASE SHIFT   
G L2W  0.00000                                              SYS / PHASE SHIFT   
G L2X  0.00000                                              SYS / PHASE SHIFT   
G L5X  0.00000                                              SYS / PHASE SHIFT   
R L1C                                                       SYS / PHASE SHIFT   
R L1P  0.00000                                              SYS / PHASE SHIFT   
R L2P  0.00000                                              SYS / PHASE SHIFT   
R L2C                                                       SYS / PHASE SHIFT   
E L1X  0.00000                                              SYS / PHASE SHIFT   
E L7X  0.00000                                              SYS / PHASE SHIFT   
E L5X  0.00000                                              SYS / PHASE SHIFT   
E L8X  0.00000                                              SYS / PHASE SHIFT   
C L2X  0.00000                                              SYS / PHASE SHIFT   
C L7X  0.00000                                              SYS / PHASE SHIFT   
C L6X  0.00000                                              SYS / PHASE SHIFT   
 22 R01  1 R02 -4 R03  5 R04  6 R05  1 R06 -4 R07  5 R08  6 GLONASS SLOT / FRQ #
    R09 -2 R10 -7 R12 -1 R13 -2 R14 -7 R15  0 R17  4 R18 -3 GLONASS SLOT / FRQ #
    R19  3 R20  2 R21  4 R22 -3 R23  3 R24  2               GLONASS SLOT / FRQ #
 C1C    0.000 C1P    0.000 C2C    0.000 C2P    0.000        GLONASS COD/PHS/BIS 
                                                            END OF HEADER       
> 2022 01 01 00 00 00.0000000  0 36                     
G30  24850337.312   130589459.8671   24850337.062    24850341.199   101757987.7611   24850341.801   101758020.7761   24850342.277    97518081.7921 
G15  24244230.836   127404311.1161   24244231.180    24244237.500    99276084.2941   24244237.262    99276087.2871                                 
G16  24640172.305   129484964.0771   24640171.909    24640174.738   100897389.4991                                                                 
G18  24995479.672   131352148.9201   24995479.906    24995481.121   102352340.1241   24995481.633   102352347.1311   24995485.656    98087682.2641 
G01  24615547.102   129355653.6451   24615547.534    24615553.594   100796591.3381   24615552.273   100796604.3511   24615551.715    96596728.0391 
G08  20574870.977   108121927.6451   20574870.830    20574876.492    84250693.4411   20574876.852    84250690.4401   20574874.957    80740240.0191 
G27  20715259.391   108859430.8141   20715259.396    20715264.289    84825560.2321   20715264.285    84825569.2291   20715263.742    81291166.0711 
G14  25008534.461   131420858.8131   25008534.623    25008537.898   102405771.9261   25008537.965   102405834.9001   25008540.293    98138895.5171 
G21  22381743.094   117616971.6101   22381742.514    22381744.508    91649528.3941                                                                 
G10  21049835.430   110617785.4781   21049835.534    21049840.746    86195593.0311   21049840.113    86195602.0401   21049838.176    82604179.4101 
G23  22013804.242   115683596.2931   22013804.467    22013807.719    90142876.5021   22013807.547    90142900.5101   22013811.043    86386952.1301 
R08  20334031.641   108887840.6931   20334031.484   108887825.7081   20334034.070    84690592.8711   20334034.074    84690551.8661 
R15  21356070.266   114120379.9881   21356069.719   114120464.9901   21356071.918    88760295.2641   21356072.141    88760307.2531 
R24  19398316.258   103732283.0711   19398315.730   103731793.0791   19398318.293    80680094.5641   19398318.641    80680116.5661 
R07  21774485.234   116560588.3541   21774484.125   116560553.3441   21774486.812    90658224.0721   21774488.738    90658101.0781 
R17  22684915.992   121391626.4861   22684916.055   121391573.4901   22684919.242    94415684.1321   22684918.680    94415683.1361 
R01  22031667.492   117771887.3871   22031666.785   117772002.3711   22031672.574    91600385.8821   22031672.656    91600375.8711 
R14  22418158.539   119501424.2541   22418157.211   119501534.2541   22418162.793    92945551.1011   22418163.883    92945536.1011 
R23  19913268.094   106522579.1171   19913266.598   106522587.1351                                                                 
E31  25402151.781   133489212.3141   25402154.012   102283952.8851   25402154.879    99683519.9641   25402154.633   100983736.5191 
E03  27661288.297   145361043.5191   27661293.359   111380547.9491   27661293.883   108548842.4361   27661290.387   109964696.7931 
E26  23449303.094   123226940.0611   23449303.254    94420653.2191   23449303.613    92020131.2091   23449304.043    93220394.3231 
E01  26507961.688   139300271.1581   26507963.867   106736573.7651   26507964.535   104022933.1581   26507964.699   105379756.0681 
E08  23928519.641   125745238.2461   23928520.348    96350258.8821   23928520.594    93900681.1031   23928520.430    95125471.0941 
E14  18096133.547    95095836.1401   18096134.086    72865644.9781   18096134.375    71013132.3351   18096134.484    71939391.2561 
E13  25656439.461   134825513.6831   25656441.043   103307878.4211   25656440.992   100681410.9171   25656441.832   101994643.2711 
E33  25352821.484   133229976.2581   25352821.488   102085314.6001   25352822.379    99489928.8391   25352822.590   100787625.3201 
C26  25436954.305   132456903.9951                                   25436945.812   107632059.2681 
C13  40178819.227   209221668.9141   40178819.383   161783471.9251   40178810.777   170009721.3021 
C06  40034735.797   208471382.5331   40034728.117   161203267.2581   40034722.254   169400019.2821 
C16  40013330.930   208359916.4821   40013328.734   161117127.4811   40013319.430   169309562.7691 
C27  23716005.891   123495486.6401                                   23715997.668   100350171.1881 
C05  40190280.008   209281302.6941   40190273.914   161829575.9551   40190270.098   170058179.9871 
C29  23749493.875   123669855.0821                                   23749484.316   100491849.2581 
C30  21456615.586   111730246.7801                                   21456608.445    90789961.5791 
C09  41180511.797   214437729.8641   41180506.938   165816841.5831   41180499.605   174248174.1741 
> 2022 01 01 00 00 30.0000000  0 36                     
G30  24859793.555   130639156.822    24859793.305    24859798.281   101796712.665    24859799.000   101796745.643    24859799.090    97555193.140  
G15  24257716.672   127475171.858    24257717.016    24257718.488    99331300.612                                                                  
G16  24662584.305   129602741.995    24662583.909    24662587.027   100989164.521                                                                  
G18  25016195.320   131461015.901    25016195.554    25016197.992   102437171.500    25016198.895   102437178.565    25016202.457    98168979.021  
G01  24593524.070   129239926.161    24593524.503    24593531.090   100706414.042    24593530.285   100706427.065    24593529.375    96510308.130  
G08  20571617.773   108104832.625    20571617.627    20571623.496    84237372.656    20571623.926    84237369.655    20571621.660    80727474.268  
G27  20725630.438   108913930.289    20725630.443    20725635.227    84868027.362    20725635.027    84868036.351    20725634.754    81331863.729  
G14  24990320.094   131325141.384    24990320.255    24990323.098   102331186.969    24990323.180   102331249.976    24990326.121    98067418.280  
G21  22367945.930   117544467.493    22367945.350    22367947.887    91593031.690                                                                  
G10  21049023.078   110613515.026    21049023.182    21049028.121    86192265.412    21049027.668    86192274.407    21049025.469    82600990.436  
G23  22026602.844   115750852.718    22026603.068    22026606.148    90195284.098    22026606.086    90195308.110    22026609.906    86437176.092  
R08  20328019.391   108855639.947    20328018.965   108855624.956    20328020.508    84665547.856    20328020.430    84665506.858  
R15  21357515.922   114128108.404    21357516.316   114128193.393    21357517.738    88766306.251    21357518.340    88766318.263  
R24  19391368.891   103695133.071    19391368.434   103694643.081    19391370.996    80651200.114    19391371.336    80651222.124  
R07  21790023.742   116643771.198    21790023.328   116643736.208    21790026.973    90722921.856    21790027.504    90722798.856  
R17  22663448.977   121276743.365    22663446.945   121276690.393    22663450.277    94326330.598    22663449.598    94326329.600  
R01  22008456.938   117647814.160    22008456.148   117647929.167    22008462.082    91503884.525    22008460.789    91503874.547  
R14  22438906.523   119612007.798    22438903.719   119612117.793    22438907.844    93031560.478    22438907.816    93031545.502  
R23  19924966.008   106585155.656    19924965.008   106585163.666                                                                  
E31  25404286.234   133500428.063    25404288.137   102292546.753    25404289.062    99691895.355    25404288.859   100992221.164  
E03  27672427.203   145419589.987    27672420.867   111425408.166    27672422.930   108592562.200    27672421.152   110008986.268  
E26  23449536.828   123228167.040    23449536.727    94421593.362    23449537.055    92021047.458    23449537.539    93221322.517  
E01  26524502.273   139387191.061    26524504.277   106803174.706    26524504.934   104087840.863    26524505.047   105445510.391  
E08  23924840.672   125725907.970    23924842.016    96335447.374    23924842.312    93886246.149    23924842.012    95110847.866  
E14  18108296.000    95159749.636    18108296.344    72914617.641    18108296.801    71060859.927    18108296.816    71987741.386  
E13  25670583.195   134899845.112    25670585.273   103364833.643    25670587.090   100736918.130    25670586.559   102050874.491  
E33  25339869.289   133161909.811    25339869.105   102033159.793    25339869.617    99439100.012    25339869.902   100736133.502  
C26  25430624.211   132423941.255                                    25430615.965   107605274.345  
C13  40185739.289   209257702.520    40185739.199   161811335.387    40185730.859   170039001.560  
C06  40023765.938   208414263.402    40023758.992   161159099.105    40023753.547   169353605.305  
C16  40003390.109   208308159.310    40003388.449   161077105.547    40003380.273   169267505.826  
C27  23732147.273   123579538.224                                    23732138.750   100418469.958  
C05  40190271.812   209281263.157    40190267.051   161829545.380    40190262.434   170058147.853  
C29  23733883.242   123588566.607                                    23733873.824   100425795.718  
C30  21457571.406   111735224.973                                    21457564.383    90794006.767  
C09  41168844.016   214376975.373    41168839.883   165769862.392    41168832.301   174198806.198  
> 2022 01 01 00 01 00.0000000  0 36                     
G30  24869339.250   130689315.830    24869339.000    24869343.703   101835797.578    24869344.258   101835830.589    24869344.469    97592649.536  
G15  24271294.273   127546527.501    24271294.617    24271300.617    99386902.188    24271301.629    99386958.135                                  
G16  24685010.555   129720592.292    24685010.159    24685014.590   101080995.897                                                                  
G18  25036918.484   131569922.083    25036918.718    25036923.105   102522033.433    25036923.230   102522040.453    25036926.496    98250305.041  
G01  24571517.500   129124275.943    24571517.932    24571523.656   100616297.020    24571523.266   100616310.026    24571521.840    96423946.002  
G08  20568466.484   108088271.062    20568466.338    20568471.820    84224467.549    20568472.418    84224464.548    20568470.168    80715106.869  
G27  20736094.383   108968919.641    20736094.389    20736099.301    84910876.196    20736099.199    84910885.200    20736098.676    81372927.194  
G14  24972161.695   131229713.208    24972161.857    24972163.707   102256827.402    24972163.750   102256890.452    24972167.348    97996157.049  
G21  22354199.219   117472229.398    22354198.639    22354201.395    91536742.273                                                                  
G10  21048319.914   110609821.250    21048320.018    21048325.312    86189387.156    21048324.750    86189396.151    21048322.680    82598232.112  
G23  22039489.102   115818568.258    22039489.326    22039491.934    90248049.474    22039492.090    90248073.473    22039495.523    86487742.890  
R08  20322159.594   108824261.944    20322159.012   108824246.959    20322161.211    84641142.740    20322160.516    84641101.743  
R15  21359120.820   114136679.233    21359120.180   114136764.229    21359121.934    88772972.441    21359121.891    88772984.448  
R24  19384518.773   103658505.179    19384519.129   103658015.193    19384521.363    80622711.758    19384520.945    80622733.759  
R07  21805681.656   116727580.332    21805680.449   116727545.344    21805682.664    90788106.757    21805684.125    90787983.763  
R17  22642002.648   121161981.979    22642001.406   121161928.992    22642004.371    94237071.729    22642003.539    94237070.733  
R01  21985313.180   117524099.745    21985312.824   117524214.739    21985318.777    91407662.242    21985317.828    91407652.243  
R14  22459729.141   119723008.227    22459727.781   119723118.251    22459731.766    93117894.120    22459731.051    93117879.129  
R23  19936751.477   106648201.537    19936750.605   106648209.549                                                                  
E31  25406508.258   133512105.944    25406510.523   102301494.752    25406511.426    99700615.849    25406511.113   101001055.401  
E03  27683634.203   145478475.174    27683639.398   111470528.008    27683638.977   108636534.920    27683636.672   110053533.054  
E26  23449826.109   123229688.707    23449826.406    94422759.317    23449826.723    92022183.764    23449827.109    93222473.638  
E01  26541081.266   139474316.423    26541083.785   106869933.083    26541084.441   104152901.989    26541084.395   105511420.143  
E08  23921248.344   125707028.449    23921249.289    96320981.251    23921249.426    93872147.813    23921249.352    95096565.633  
E14  18120738.656    95225136.804    18120738.984    72964719.490    18120739.582    71109687.999    18120739.586    72037206.348  
E13  25684754.047   134974309.783    25684756.094   103421890.990    25684756.023   100792524.840    25684756.738   102107206.515  
E33  25326949.375   133094014.940    25326948.938   101981136.434    25326949.402    99388399.287    25326949.918   100684771.467  
C26  25424387.453   132391464.237                                    25424379.344   107578884.145  
C13  40192659.148   209293733.063    40192658.652   161839196.471    40192650.172   170068279.317  
C06  40012813.742   208357236.614    40012808.102   161115002.394    40012802.027   169307266.379  
C16  39993473.242   208256516.166    39993471.035   161037171.806    39993463.086   169225541.570  
C27  23748328.203   123663795.098                                    23748319.301   100486935.549  
C05  40190265.617   209281227.563    40190259.852   161829517.856    40190255.605   170058118.934  
C29  23718310.227   123507473.388                                    23718300.328   100359900.837  
C30  21458605.047   111740607.151                                    21458598.070    90798380.221  
C09  41157186.180   214316268.256    41157182.758   165722919.825    41157174.375   174149476.702  
> 2022 01 01 00 01 30.0000000  0 37                     
G30  24878970.500   130739935.474    24878970.250    24878976.074   101875241.460    24878976.754   101875274.475    24878976.883    97630449.904  
G15  24284965.000   127618375.893    24284965.344    24284972.555    99442888.146                                                                  
G16  24707449.484   129838512.092    24707449.088    24707453.473   101172881.420                                                                  
G18  25057650.406   131678866.866    25057650.640    25057654.641   102606925.468    25057654.422   102606932.416    25057657.828    98331659.847  
G32  25221008.453   132537290.456    25221008.683    25221013.812   103275833.175    25221013.875   103275829.166    25221013.762    98972670.296  
G01  24549523.883   129008705.103    24549524.315    24549531.090   100526241.840    24549531.309   100526254.844    24549529.594    96337643.131  
G08  20565416.516   108072244.315    20565416.369    20565422.121    84211979.165    20565422.750    84211976.171    20565420.594    80703138.832  
G27  20746652.141   109024398.375    20746652.146    20746656.355    84954106.367    20746656.355    84954115.363    20746655.969    81414356.105  
G14  24954058.828   131134577.764    24954058.990    24954060.746   102182695.961    24954060.309   102182758.976    24954064.422    97925114.376  
G21  22340503.648   117400258.752    22340503.068    22340505.895    91480661.266                                                                  
G10  21047727.031   110606704.716    21047727.136    21047732.121    86186958.694    21047731.625    86186967.696    21047729.684    82595904.844  
G23  22052462.305   115886741.340    22052462.529    22052464.867    90301171.345    22052464.852    90301195.344    22052468.719    86538651.359  
R08  20316454.461   108793708.901    20316453.648   108793693.902    20316455.676    84617379.275    20316455.320    84617338.277  
R15  21360881.555   114146092.769    21360881.914   114146177.785    21360883.398    88780294.095    21360884.430    88780306.093  
R24  19377767.875   103622402.092    19377767.609   103621912.101    19377770.078    80594631.575    19377769.863    80594653.572  
R07  21821454.836   116812013.436    21821454.277   116811978.448    21821456.785    90853776.931    21821457.551    90853653.924  
R17  22620579.742   121047344.872    22620578.871   121047291.879    22620581.801    94147909.548    22620581.348    94147908.557  
R01  21962238.484   117400748.589    21962237.699   117400863.617    21962243.441    91311722.487    21962242.590    91311712.501  
R14  22480628.102   119834422.089    22480627.387   119834532.101    22480632.852    93204549.305    22480632.820    93204534.345  
R23  19948625.102   106711716.142    19948624.281   106711724.146                                                                  
E31  25408818.383   133524246.390    25408821.102   102310797.170    25408821.512    99709681.761    25408821.371   101010239.568  
E03  27694905.383   145537698.389    27694906.137   111515906.735    27694904.887   108680759.986    27694906.039   110098334.959  
E26  23450172.164   123231505.681    23450171.855    94424151.535    23450172.516    92023540.586    23450172.855    93223848.166  
E01  26557699.742   139561646.138    26557701.953   106936848.000    26557702.863   104218115.688    26557702.672   105577484.455  
E08  23917741.461   125688600.857    23917742.242    96306861.413    23917742.191    93858386.960    23917742.652    95082625.289  
E14  18133461.070    95291993.787    18133461.660    73015947.530    18133462.316    71159613.634    18133462.062    72087783.187  
E13  25698950.891   135048907.777    25698950.801   103479050.465    25698952.211   100848231.130    25698952.203   102163639.405  
E33  25314061.797   133026292.913    25314061.844   101929245.537    25314062.363    99337827.633    25314062.879   100633540.189  
C26  25418244.508   132359474.673                                    25418236.293   107552890.011  
C13  40199577.820   209329761.023    40199577.410   161867055.565    40199568.852   170097554.981  
C06  40001880.750   208300303.351    40001874.172   161070977.969    40001868.918   169261003.452  
C16  39983576.500   208204988.266    39983576.570   160997327.182    39983567.371   169183670.934  
C27  23764547.969   123748256.909                                    23764539.398   100555567.665  
C05  40190259.141   209281196.605    40190253.770   161829493.917    40190249.676   170058093.778  
C29  23702775.039   123426577.406                                    23702765.305   100294166.235  
C30  21459716.266   111746394.140                                    21459709.391    90803082.623  
C09  41145537.531   214255609.872    41145533.469   165676014.946    41145525.410   174100186.814  
> 2022 01 01 00 02 00.0000000  0 37                     
G30  24888691.352   130791013.168    24888691.101    24888695.758   101915042.252    24888696.156   101915075.260    24888696.598    97668592.325  
G15  24298732.266   127690714.431    24298732.609    24298737.500    99499255.695    24298735.789    99499250.655                                  
G16  24729902.023   129956499.004    24729901.628    24729904.656   101264819.215                                                                  
G18  25078389.859   131787848.439    25078390.093    25078392.883   102691846.093    25078392.945   102691853.085    25078396.121    98413042.136  
G32  25201099.891   132432672.167    25201100.121    25201105.887   103194312.465    25201106.234   103194308.465    25201105.148    98894546.272  
G01  24527547.141   128893214.493    24527547.573    24527554.391   100436249.175    24527553.039   100436262.192    24527552.656    96251400.183  
G08  20562468.641   108056752.703    20562468.494    20562474.156    84199907.787    20562474.488    84199904.794    20562472.543    80691570.437  
G27  20757301.945   109080364.691    20757301.951    20757306.398    84997716.464    20757306.406    84997725.455    20757306.246    81456149.104  
G14  24936009.695   131039737.062    24936009.857    24936012.613   102108794.158    24936012.586   102108857.162    24936017.055    97854291.838  
G21  22326859.938   117328555.908    22326859.357    22326861.523    91424788.926                                                                  
G10  21047243.648   110604164.626    21047243.753    21047248.848    86184979.403    21047248.254    86184988.407    21047246.250    82594008.020  
G23  22065521.805   115955369.175    22065522.029    22065524.375    90354647.587    22065524.195    90354671.587    22065528.156    86589899.423  
R08  20310902.680   108763980.921    20310903.027   108763965.937    20310903.797    84594257.508    20310903.836    84594216.519  
R15  21362801.227   114156347.891    21362800.770   114156432.872    21362802.684    88788270.277    21362802.684    88788282.282  
R24  19371115.094   103586824.004    19371114.402   103586334.019    19371116.754    80566959.729    19371116.547    80566981.732  
R07  21837342.617   116897065.825    21837342.688   116897030.822    21837345.328    90919928.768    21837345.438    90919805.737  
R17  22599180.570   120932832.826    22599179.312   120932779.843    22599182.281    94058844.655    22599182.297    94058843.654  
R01  21939230.414   117277764.520    21939230.305   117277879.533    21939236.652    91216068.236    21939235.902    91216058.238  
R14  22501606.078   119946244.157    22501604.762   119946354.174    22501609.953    93291521.981    22501611.270    93291507.018  
R23  19960585.062   106775697.521    19960584.625   106775705.533                                                                  
E31  25411216.570   133536848.611    25411219.086   102320453.411    25411219.598    99719092.516    25411219.461   101019773.066  
E03  27706236.734   145597257.519    27706239.938   111561543.006    27706240.113   108725235.974    27706240.000   110143391.080  
E26  23450573.930   123233617.302    23450573.609    94425769.536    23450574.520    92025117.459    23450574.688    93225445.596  
E01  26574356.938   139649177.796    26574358.113   107003917.691    26574359.770   104283480.203    26574359.500   105643701.557  
E08  23914320.711   125670625.216    23914321.164    96293087.869    23914321.227    93844963.596    23914322.031    95069026.835  
E14  18146462.188    95360315.529    18146462.789    73068297.955    18146463.613    71210633.117    18146463.227    72139468.139  
E13  25713170.789   135123637.824    25713171.965   103536311.134    25713172.828   100904036.005    25713172.891   102220172.175  
E33  25301207.586   132958743.791    25301207.676   101877487.142    25301208.738    99287385.128    25301208.711   100582439.733  
C26  25412195.703   132327972.989                                    25412187.094   107527292.340  
C13  40206496.359   209365785.630    40206495.430   161894912.062    40206487.090   170126827.909  
C06  39990965.312   208243463.573    39990958.684   161027025.871    39990953.148   169214816.476  
C16  39973704.297   208153575.439    39973703.453   160957571.557    39973694.180   169141893.810  
C27  23780806.984   123832922.068                                    23780798.492   100624365.038  
C05  40190254.656   209281169.743    40190248.414   161829473.145    40190244.438   170058071.943  
C29  23687277.695   123345879.487                                    23687268.172   100228592.566  
C30  21460905.516   111752585.610                                    21460898.387    90808113.693  
C09  41133898.859   214194999.995    41133894.078   165629147.559    41133886.098   174050936.333  
> 2022 01 01 00 02 30.0000000  0 37                     
G30  24898497.477   130842546.732    24898497.226    24898503.090   101955198.223    24898503.109   101955231.260    24898502.996    97707075.145  
G15  24312591.930   127763540.196    24312592.273    24312595.223    99556003.075    24312595.496    99555998.055                                  
G16  24752368.289   130074550.745    24752367.893    24752369.887   101356807.574                                                                  
G18  25099135.180   131896865.502    25099135.413    25099138.258   102776794.386    25099138.391   102776801.402    25099141.434    98494450.922  
G32  25181200.414   132328098.920    25181200.644    25181206.043   103112826.871    25181206.184   103112822.877    25181205.465    98816455.908  
G01  24505585.664   128777805.795    24505586.097    24505592.750   100346320.383    24505592.840   100346333.375    24505590.664    96165218.412  
G08  20559622.469   108041797.118    20559622.322    20559628.258    84188254.077    20559628.367    84188251.084    20559626.434    80680402.300  
G27  20768044.297   109136817.430    20768044.303    20768048.938    85041705.597    20768049.059    85041714.593    20768048.898    81498305.353  
G14  24918019.086   130945194.009    24918019.248    24918021.082   102035124.213    24918021.070   102035187.191    24918025.320    97783691.486  
G21  22313266.234   117257121.956    22313265.654    22313268.066    91369126.109                                                                  
G10  21046869.992   110602200.820    21046870.097    21046875.344    86183449.161    21046874.723    86183458.171    21046872.543    82592541.537  
G23  22078667.070   116024449.527    22078667.295    22078669.965    90408476.435    22078669.773    90408500.441    22078673.559    86641485.402  
R08  20305506.680   108735080.378    20305505.637   108735065.379    20305506.605    84571779.304    20305507.547    84571738.314  
R15  21364877.648   114167443.903    21364877.125   114167528.906    21364879.746    88796900.513    21364879.340    88796912.512  
R24  19364559.414   103551772.023    19364559.211   103551282.039    19364561.738    80539697.081    19364562.121    80539719.090  
R07  21853346.250   116982733.884    21853346.461   116982698.895    21853349.801    90986559.457    21853349.453    90986436.447  
R17  22577805.141   120818447.816    22577803.559   120818394.825    22577806.371    93969878.525    22577806.590    93969877.527  
R01  21916292.922   117155151.625    21916293.285   117155266.625    21916299.512    91120702.701    21916298.750    91120692.694  
R14  22522658.656   120058470.232    22522659.191   120058580.211    22522663.703    93378808.839    22522664.102    93378793.849  
R23  19972632.844   106840144.470    19972631.723   106840152.474                                                                  
E31  25413702.734   133549912.374    25413704.969   102330463.291    25413705.863    99728847.916    25413705.398   101029655.715  
E03  27717636.352   145657151.038    27717636.270   111607435.419    27717635.691   108769961.651    27717636.969   110188700.129  
E26  23451031.539   123236023.544    23451031.656    94427613.276    23451032.320    92026914.319    23451032.578    93227265.906  
E01  26591051.461   139736909.533    26591052.910   107071140.712    26591054.566   104348994.132    26591054.453   105710070.029  
E08  23910986.375   125653101.922    23910986.156    96279660.944    23910987.359    93831878.022    23910987.488    95055770.585  
E14  18159741.102    95430097.249    18159741.645    73121767.041    18159742.633    71262742.818    18159742.270    72192257.536  
E13  25727415.031   135198499.262    25727417.582   103593672.480    25727418.570   100959939.025    25727418.465   102276804.357  
E33  25288386.609   132891368.240    25288386.184   101825861.706    25288387.352    99237072.223    25288387.477   100531470.574  
C26  25406240.188   132296960.201                                    25406231.461   107502091.928  
C13  40213413.367   209401806.829    40213412.703   161922765.940    40213404.820   170156098.088  
C06  39980068.766   208186717.772    39980061.879   160983146.456    39980056.008   169168705.881  
C16  39963853.102   208102278.245    39963851.902   160917905.275    39963843.164   169100210.610  
C27  23797105.312   123917789.597                                    23797096.414   100693326.829  
C05  40190250.297   209281146.997    40190244.008   161829455.558    40190240.184   170058053.461  
C29  23671818.766   123265380.957                                    23671809.488   100163180.919  
C30  21462172.117   111759181.705                                    21462165.102    90813473.562  
C09  41122268.633   214134439.273    41122264.113   165582318.166    41122256.008   174001725.795  
> 2022 01 01 00 03 00.0000000  0 37                     
G30  24908390.195   130894534.111    24908389.945    24908395.969   101995707.911    24908396.500   101995740.911    24908395.902    97745896.897  
G15  24326542.422   127836850.951    24326542.766    24326543.910    99613128.316                                                                  
G16  24774843.695   130192664.252    24774843.299    24774846.570   101448844.039                                                                  
G18  25119886.867   132005916.825    25119887.101    25119890.234   102861769.425    25119890.266   102861776.424    25119893.195    98575885.321  
G32  25161309.180   132223573.514    25161309.410    25161315.590   103031378.504    25161315.828   103031374.508    25161315.082    98738401.216  
G01  24483639.164   128662480.164    24483639.597    24483646.891   100256456.273    24483646.309   100256469.245    24483645.191    96079098.643  
G08  20556878.586   108027378.317    20556878.440    20556884.496    84177018.657    20556884.801    84177015.656    20556882.723    80669635.014  
G27  20778879.320   109193755.275    20778879.326    20778883.887    85086072.712    20778884.094    85086081.715    20778883.777    81540823.836  
G14  24900084.055   130850951.227    24900084.216    24900087.262   101961688.213    24900087.238   101961751.217    24900091.062    97713315.353  
G21  22299723.539   117185957.609    22299722.959    22299726.465    91313673.387                                                                  
G10  21046605.461   110600813.034    21046605.565    21046611.121    86182367.774    21046610.734    86182376.783    21046608.453    82591505.209  
G23  22091898.172   116093980.174    22091898.396    22091901.000    90462656.154    22091901.297    90462680.158    22091904.754    86693407.618  
R08  20300264.984   108707007.257    20300263.152   108706992.273    20300263.512    84549944.653    20300264.707    84549903.648  
R15  21367111.109   114179380.370    21367110.766   114179465.380    21367113.730    88806184.454    21367112.352    88806196.466  
R24  19358103.258   103517247.668    19358103.094   103516757.685    19358105.645    80512844.801    19358105.840    80512866.812  
R07  21869463.633   117069014.095    21869463.234   117068979.107    21869466.469    91053666.283    21869467.188    91053543.297  
R17  22556453.414   120704191.696    22556452.086   120704138.685    22556455.250    93881012.657    22556455.082    93881011.640  
R01  21893427.227   117032913.937    21893426.359   117033028.944    21893432.480    91025628.967    21893431.539    91025618.956  
R14  22543789.781   120171095.969    22543787.031   120171205.938    22543792.398    93466406.580    22543792.734    93466391.590  
R23  19984767.180   106905055.736    19984766.285   106905063.748                                                                  
E31  25416276.500   133563437.416    25416278.902   102340826.641    25416279.422    99738947.780    25416279.141   101039887.312  
E03  27729095.117   145717377.505    27729098.734   111653582.892    27729097.996   108814935.858    27729097.789   110234260.984  
E26  23451545.328   123238724.334    23451545.461    94429682.719    23451546.203    92028931.147    23451546.523    93229309.032  
E01  26607784.250   139824839.500    26607785.828   107138515.595    26607787.180   104414656.095    26607787.027   105776588.449  
E08  23907738.422   125636031.504    23907737.727    96266581.019    23907739.445    93819130.650    23907739.066    95042856.939  
E14  18173296.891    95501334.107    18173297.477    73176351.099    18173298.551    71315939.135    18173298.230    72246147.720  
E13  25741688.000   135273491.436    25741687.758   103651134.000    25741689.066   101015939.640    25741689.078   102333535.427  
E33  25275598.688   132824166.911    25275598.754   101774369.773    25275599.559    99186889.417    25275599.410   100480633.204  
C26  25400378.492   132266437.336                                    25400370.352   107477289.604  
C13  40220330.109   209437824.741    40220329.609   161950617.272    40220321.598   170185365.592  
C06  39969190.922   208130066.524    39969183.059   160939340.114    39969175.949   169122672.062  
C16  39954024.938   208051096.993    39954023.336   160878328.705    39954014.074   169058621.670  
C27  23813441.742   124002858.493                                    23813432.879   100762452.260  
C05  40190246.555   209281128.322    40190240.820   161829441.113    40190236.508   170058038.288  
C29  23656398.344   123185083.170                                    23656388.922   100097932.388  
C30  21463516.391   111766182.621                                    21463509.582    90819162.375  
C09  41110647.891   214073928.147    41110643.559   165535527.136    41110635.531   173952555.551  
> 2022 01 01 00 03 30.0000000  0 37                     
G30  24918368.727   130946973.104    24918368.476    24918374.594   102036569.419    24918374.793   102036602.431    24918374.660    97785055.869  
G15  24340586.391   127910643.038    24340586.734                                    24340587.297    99670620.209                                  
G16  24797331.078   130310836.527    24797330.682    24797334.234   101540926.316                                                                  
G18  25140645.156   132115001.042    25140645.390    25140648.223   102946770.080    25140648.641   102946777.089    25140651.156    98657344.282  
G32  25141429.242   132119098.494    25141429.473    25141434.602   102949969.436    25141435.121   102949965.431    25141434.023    98660384.232  
G01  24461710.430   128547239.182    24461710.862    24461717.008   100166658.169    24461716.523   100166671.195    24461715.594    95993042.156  
G08  20554237.258   108013496.742    20554237.111    20554242.973    84166201.845    20554243.281    84166198.844    20554241.262    80659268.904  
G27  20789806.406   109251177.034    20789806.412    20789811.113    85130816.956    20789811.199    85130825.960    20789810.918    81583703.738  
G14  24882207.859   130757011.245    24882208.021    24882211.621   101888488.248    24882211.199   101888551.262    24882215.359    97643165.413  
G21  22286233.609   117115063.416    22286233.029    22286235.539    91258431.165                                                                  
G10  21046451.055   110600000.962    21046451.159    21046456.609    86181734.996    21046455.941    86181743.998    21046453.887    82590898.795  
G23  22105214.742   116163958.729    22105214.967    22105217.793    90517184.898    22105217.441    90517208.906    22105221.242    86745664.332  
R08  20295176.781   108679763.019    20295175.445   108679748.036    20295176.719    84528754.698    20295176.289    84528713.693  
R15  21369502.133   114192156.448    21369501.996   114192241.458    21369504.254    88816121.390    21369503.910    88816133.388  
R24  19351746.391   103483251.991    19351745.676   103482762.000    19351748.332    80486403.717    19351748.156    80486425.718  
R07  21885695.516   117155902.828    21885695.223   117155867.849    21885697.320    91121246.410    21885696.734    91121123.416  
R17  22535126.500   120590066.115    22535125.555   120590013.125    22535128.320    93792248.332    22535128.547    93792247.328  
R01  21870630.836   116911055.333    21870629.875   116911170.345    21870635.832    90930850.064    21870634.938    90930840.086  
R14  22564991.484   120284116.482    22564990.039   120284226.511    22564994.762    93554311.404    22564995.023    93554296.417  
R23  19996988.148   106970429.875    19996987.160   106970437.879                                                                  
E31  25418937.867   133577423.321    25418939.676   102351543.116    25418940.773    99749391.808    25418940.516   101050467.569  
E03  27740619.500   145777935.106    27740620.824   111699984.204    27740620.230   108860157.491    27740621.598   110280072.452  
E26  23452115.812   123241719.492    23452115.387    94431977.703    23452116.324    92031167.783    23452116.504    93231574.848  
E01  26624553.867   139912965.753    26624555.559   107206040.868    26624556.941   104480464.621    26624556.918   105843255.351  
E08  23904575.914   125619414.351    23904576.238    96253848.388    23904577.105    93806721.724    23904576.918    95030286.164  
E14  18187128.930    95574021.163    18187129.305    73232046.345    18187130.508    71370218.407    18187130.156    72301134.987  
E13  25755981.664   135348613.585    25755983.398   103708695.102    25755984.133   101072037.341    25755984.332   102390364.824  
E33  25262843.789   132757140.290    25262844.004   101723011.721    25262844.863    99136837.080    25262844.609   100429928.002  
C26  25394611.688   132236405.264                                    25394603.414   107452886.073  
C13  40227246.547   209473839.042    40227245.465   161978465.805    40227237.488   170214630.161  
C06  39958328.062   208073510.170    39958320.824   160895607.151    39958315.266   169076715.419  
C16  39944217.281   208000032.083    39944216.906   160838842.100    39944207.867   169017127.265  
C27  23829816.383   124088127.669                                    23829808.273   100831740.415  
C05  40190243.750   209281113.753    40190237.719   161829429.848    40190233.766   170058026.450  
C29  23641016.836   123104987.397                                    23641006.996   100032848.020  
C30  21464938.773   111773588.454                                    21464931.719    90825180.220  
C09  41099037.336   214013467.099    41099032.215   165488774.803    41099024.551   173903426.002  
> 2022 01 01 00 04 00.0000000  0 37                     
G30  24928432.922   130999860.292    24928432.672    24928438.629   102077780.233    24928439.094   102077813.270    24928438.562    97824549.573  
G15  24354716.922   127984914.251    24354717.266    24354719.484    99728496.084    24354721.152    99728494.137                                  
G16  24819829.148   130429064.507    24819828.753    24819832.117   101633052.004                                                                  
G18  25161408.750   132224115.918    25161408.984    25161412.184   103031794.642    25161412.074   103031801.652    25161415.195    98738826.138  
G32  25121557.711   132014675.689    25121557.941    25121563.781   102868601.061    25121564.258   102868597.054    25121562.789    98582406.184  
G01  24439796.336   128432083.201    24439796.768    24439803.711   100076926.258    24439803.605   100076939.273    24439802.250    95907049.070  
G08  20551698.109   108000152.451    20551697.963    20551703.621    84155803.689    20551703.969    84155800.695    20551701.895    80649304.013  
G27  20800824.773   109309080.260    20800824.779    20800829.539    85175936.373    20800829.770    85175945.370    20800829.516    81626943.173  
G14  24864389.805   130663375.784    24864389.966    24864393.059   101815525.569    24864393.211   101815588.587    24864394.996    97573242.845  
G21  22272794.141   117044439.190    22272793.561    22272795.922    91203399.300                                                                  
G10  21046406.484   110599763.228    21046406.589    21046411.605    86181549.745    21046410.535    86181558.754    21046408.641    82590721.255  
G23  22118615.297   116234381.795    22118615.521    22118618.836    90572060.013    22118618.953    90572084.020    22118621.945    86798252.995  
R08  20290243.414   108653347.861    20290242.883   108653332.871    20290243.629    84508209.564    20290243.602    84508168.574  
R15  21372049.258   114205770.288    21372049.883   114205855.284    21372051.883    88826709.927    21372051.441    88826721.933  
R24  19345488.016   103449785.204    19345487.352   103449295.214    19345489.750    80460373.996    19345490.227    80460396.001  
R07  21902039.047   117243395.181    21902039.422   117243360.198    21902042.133    91189296.034    21902042.555    91189173.048  
R17  22513823.391   120476071.840    22513822.535   120476018.844    22513825.844    93703586.122    22513825.625    93703585.109  
R01  21847907.008   116789579.019    21847905.812   116789694.027    21847911.168    90836368.502    21847910.508    90836358.509  
R14  22586265.742   120397526.773    22586265.664   120397636.801    22586269.719    93642519.352    22586270.719    93642504.327  
R23  20009295.734   107036264.946    20009294.895   107036272.973                                                                  
E31  25421686.625   133591868.745    25421688.387   102362611.680    25421689.770    99760178.973    25421689.398   101061395.434  
E03  27752206.586   145838821.489    27752209.492   111746637.355    27752209.730   108905624.515    27752208.027   110326132.521  
E26  23452741.570   123245007.823    23452741.156    94434497.341    23452741.973    92033623.363    23452742.266    93234062.457  
E01  26641360.453   140001285.373    26641362.270   107273714.313    26641363.664   104546417.557    26641363.637   105910068.541  
E08  23901499.656   125603249.759    23901500.707    96241462.543    23901501.043    93794650.765    23901500.945    95018057.754  
E14  18201235.578    95648152.290    18201235.973    73288848.110    18201237.207    71425576.050    18201236.887    72357214.687  
E13  25770302.789   135423863.940    25770302.418   103766354.445    25770304.359   101128230.762    25770303.984   102447291.216  
E33  25250122.031   132690287.877    25250122.188   101671787.155    25250122.852    99086914.840    25250122.984   100379354.599  
C26  25388938.055   132206863.816                                    25388929.645   107428881.222  
C13  40234161.859   209509848.660    40234160.891   162006310.724    40234152.914   170243890.931  
C06  39947486.000   208017048.064    39947478.359   160851947.064    39947472.520   169030835.348  
C16  39934434.539   207949082.924    39934431.977   160799444.996    39934423.590   168975726.919  
C27  23846229.852   124173594.928                                    23846221.234   100901189.538  
C05  40190241.367   209281102.072    40190235.535   161829420.819    40190231.445   170058016.958  
C29  23625673.852   123025093.912                                    23625664.188    99967928.024  
C30  21466438.680   111781398.216                                    21466431.551    90831526.295  
C09  41087435.617   213953055.524    41087431.277   165442060.764    41087422.848   173854336.661  
> 2022 01 01 00 04 30.0000000  0 37                     
G30  24938582.477   131053196.653    24938582.226    24938588.074   102119341.028    24938588.402   102119374.014    24938587.609    97864378.650  
G15  24368942.008   128059664.656    24368942.352    24368944.668    99786742.945    24368943.094    99786740.966                                  
G16  24842337.750   130547348.007    24842337.354    24842340.598   101725220.927                                                                  
G18  25182178.844   132333262.909    25182179.077    25182182.129   103116844.239    25182181.914   103116851.250    25182184.961    98820332.005  
G32  25101697.398   131910310.648    25101697.629    25101703.609   102787277.678    25101703.703   102787273.641    25101702.996    98504471.294  
G01  24417899.969   128317016.527    24417900.401    24417907.453    99987264.004    24417906.840    99987277.013    24417905.523    95821122.745  
G08  20549261.203   107987348.539    20549261.057    20549266.855    84145826.623    20549267.301    84145823.622    20549265.379    80639742.650  
G27  20811935.422   109367466.448    20811935.428    20811940.164    85221432.096    20811940.176    85221441.093    20811940.199    81670543.242  
G14  24846631.047   130570050.388    24846631.209    24846634.223   101742804.501    24846634.453   101742867.510    24846636.180    97503551.790  
G21  22259406.578   116974088.831    22259405.998    22259408.707    91148580.843                                                                  
G10  21046470.352   110600102.371    21046470.456    21046476.188    86181814.015    21046475.344    86181823.026    21046473.297    82590974.521  
G23  22132101.633   116305249.968    22132101.857    22132104.969    90627281.957    22132104.234    90627305.965    22132107.656    86851174.019  
R08  20285465.664   108627765.652    20285464.891   108627750.660    20285465.715    84488312.295    20285465.852    84488271.290  
R15  21374754.258   114220224.004    21374754.602   114220309.007    21374757.012    88837951.704    21374756.184    88837963.724  
R24  19339328.695   103416851.453    19339328.301   103416361.462    19339331.215    80434758.867    19339330.949    80434780.864  
R07  21918496.852   117331490.379    21918496.820   117331455.385    21918499.051    91257814.540    21918498.754    91257691.529  
R17  22492546.086   120362213.190    22492545.090   120362160.199    22492548.406    93615029.396    22492548.027    93615028.410  
R01  21825255.016   116668491.993    21825253.941   116668607.002    21825259.324    90742189.728    21825258.727    90742179.751  
R14  22607613.656   120511325.199    22607613.023   120511435.176    22607618.250    93731029.145    22607619.121    93731014.169  
R23  20021689.977   107102562.012    20021688.965   107102570.023                                                                  
E31  25424523.336   133606776.187    25424525.297   102374034.271    25424526.395    99771311.146    25424526.230   101072672.813  
E03  27763855.141   145900037.673    27763858.059   111793543.213    27763857.387   108951337.845    27763857.348   110372442.137  
E26  23453423.391   123248592.124    23453423.293    94437243.756    23453424.090    92036299.950    23453424.320    93236773.950  
E01  26658204.359   140089799.326    26658205.906   107341536.650    26658207.188   104612515.591    26658207.273   105977028.727  
E08  23898510.352   125587541.051    23898511.121    96229425.999    23898511.816    93782920.238    23898511.621    95006174.220  
E14  18215616.586    95723725.171    18215617.016    73346754.581    18215618.094    71482010.311    18215617.949    72414385.048  
E13  25784646.062   135499244.693    25784647.551   103824113.709    25784648.066   101184521.577    25784648.551   102504316.243  
E33  25237434.242   132623613.192    25237434.816   101620698.767    25237434.879    99037125.299    25237435.266   100328915.635  
C26  25383360.047   132177816.736                                    25383349.797   107405278.090  
C13  40241076.547   209545856.207    40241075.891   162034154.055    40241068.188   170273150.014  
C06  39936659.750   207960683.616    39936653.969   160808362.503    39936648.539   168985034.630  
C16  39924672.586   207898252.813    39924670.977   160760139.918    39924662.117   168934423.265  
C27  23862681.984   124259262.126                                    23862673.004   100970801.117  
C05  40190240.180   209281096.240    40190234.051   161829416.303    40190230.387   170058012.217  
C29  23610370.742   122945406.897                                    23610361.047    99903175.796  
C30  21468016.453   111789614.899                                    21468009.441    90838203.022  
C09  41075844.273   213892696.658    41075839.773   165395387.483    41075831.379   173805290.161  
> 2022 01 01 00 05 00.0000000  0 37                     
G30  24948816.836   131106977.897    24948816.586    24948822.406   102161248.468    24948822.508   102161281.496    24948822.324    97904539.988  
G15  24383256.945   128134889.376    24383257.289    24383259.523    99845359.704    24383260.070    99845357.697                                  
G16  24864855.820   130665682.328    24864855.424    24864858.012   101817429.498                                                                  
G18  25202954.594   132442438.946    25202954.827    25202957.426   103201916.480    25202957.223   103201923.479    25202960.707    98901859.558  
G32  25081847.984   131806004.272    25081848.215    25081854.855   102706000.047    25081854.379   102705996.059    25081853.988    98426580.226  
G01  24396020.398   128202038.757    24396020.831    24396027.832    99897670.973    24396027.418    99897683.999    24396025.711    95735262.779  
G08  20546927.703   107975084.217    20546927.557    20546933.129    84136270.010    20546933.676    84136267.016    20546931.688    80630584.232  
G27  20823137.312   109426332.464    20823137.318    20823142.121    85267301.727    20823142.246    85267310.724    20823142.105    81714501.635  
G14  24828930.594   130477035.927    24828930.755    24828934.285   101670325.712    24828933.965   101670388.706    24828937.652    97434092.933  
G21  22246071.484   116904011.275    22246070.904    22246073.723    91093974.967                                                                  
G10  21046644.492   110601016.159    21046644.597    21046650.102    86182526.060    21046649.562    86182535.063    21046647.164    82591656.890  
G23  22145671.516   116376559.048    22145671.740    22145674.168    90682847.467    22145674.395    90682871.464    22145677.387    86904424.313  
R08  20280843.320   108603015.120    20280842.781   108603000.127    20280843.773    84469061.876    20280844.121    84469020.864  
R15  21377616.516   114235514.844    21377615.797   114235599.840    21377618.582    88849844.589    21377618.164    88849856.604  
R24  19333269.133   103384449.917    19333269.172   103383959.926    19333271.570    80409557.675    19333271.711    80409579.678  
R07  21935064.805   117420182.430    21935064.332   117420147.427    21935067.547    91326797.268    21935067.324    91326674.260  
R17  22471294.250   120248490.558    22471293.477   120248437.562    22471296.570    93526578.478    22471295.832    93526577.467  
R01  21802675.789   116547796.387    21802675.543   116547911.394    21802680.586    90648315.366    21802680.055    90648305.353  
R14  22629035.344   120625505.182    22629033.273   120625615.182    22629038.172    93819835.770    22629038.281    93819820.789  
R23  20034170.062   107169318.059    20034168.543   107169326.063                                                                  
E31  25427447.742   133622143.430    25427449.848   102385809.162    25427450.055    99782786.683    25427450.496   101084298.026  
E03  27775566.891   145961580.425    27775568.102   111840699.343    27775565.719   108997295.154    27775568.027   110418998.853  
E26  23454161.492   123252470.378    23454161.344    94440215.400    23454161.902    92039196.052    23454162.328    93239707.832  
E01  26675084.250   140178503.817    26675085.707   107409505.014    26675086.949   104678755.926    26675087.223   106044133.070  
E08  23895608.133   125572286.731    23895608.207    96217737.603    23895608.547    93771529.015    23895608.816    94994634.414  
E14  18230270.773    95800732.645    18230271.059    73405760.284    18230272.141    71539515.868    18230272.027    72472640.681  
E13  25799014.703   135574753.235    25799016.156   103881970.879    25799017.586   101240907.793    25799017.352   102561437.945  
E33  25224780.000   132557114.945    25224780.465   101569745.562    25224780.684    98987467.506    25224781.129   100278610.142  
C26  25377876.656   132149263.086                                    25377866.898   107382075.911  
C13  40247990.188   209581859.835    40247990.059   162061994.329    40247981.824   170302405.899  
C06  39925853.672   207904415.370    39925848.242   160764852.341    39925842.977   168939312.103  
C16  39914933.016   207847540.175    39914932.000   160720925.700    39914923.547   168893215.110  
C27  23879171.086   124345126.357                                    23879162.305   101040572.820  
C05  40190240.297   209281094.215    40190234.492   161829414.738    40190229.902   170058010.560  
C29  23595107.977   122865925.790                                    23595097.691    99838590.889  
C30  21469672.117   111798236.738                                    21469665.285    90845208.969  
C09  41064263.078   213832389.155    41064257.961   165348753.923    41064249.859   173756285.398  
> 2022 01 01 00 05 30.0000000  0 37                     
G30  24959136.117   131161202.544    24959135.867    24959140.887   102203501.444    24959141.105   102203534.478    24959140.441    97945032.416  
G15  24397662.078   128210586.654    24397662.422    24397663.480    99904344.631                                                                  
G16  24887383.508   130784065.901    24887383.112    24887387.129   101909676.394                                                                  
G18  25223735.086   132551643.385    25223735.320    25223738.492   103287010.766    25223738.395   103287017.869    25223741.359    98983408.356  
G32  25062011.562   131701760.100    25062011.793    25062018.184   102624770.847    25062017.750   102624766.858    25062016.996    98348735.594  
G01  24374158.797   128087152.002    24374159.229    24374165.504    99808148.906    24374165.113    99808161.897    24374163.246    95649470.779  
G08  20544696.672   107963360.934    20544696.526    20544702.438    84127134.975    20544702.812    84127131.982    20544700.664    80621829.833  
G27  20834430.773   109485677.664    20834430.779    20834435.078    85313544.731    20834435.051    85313553.720    20834435.043    81758817.843  
G14  24811290.281   130384335.638    24811290.443    24811293.520   101598091.711    24811293.652   101598154.729    24811296.812    97364868.718  
G21  22232788.172   116834207.970    22232787.592    22232790.293    91039582.782                                                                  
G10  21046927.633   110602504.939    21046927.737    21046933.238    86183686.156    21046932.434    86183695.166    21046930.551    82592768.661  
G23  22159324.750   116448307.427    22159324.974    22159327.395    90738755.298    22159327.508    90738779.307    22159330.809    86958002.658  
R08  20276376.984   108579098.434    20276375.980   108579083.428    20276377.551    84450460.004    20276377.938    84450418.984  
R15  21380633.945   114251642.903    21380634.633   114251727.907    21380636.785    88862388.621    21380637.246    88862400.620  
R24  19327309.609   103352582.114    19327309.887   103352092.119    19327312.016    80384771.604    19327312.156    80384793.605  
R07  21951742.586   117509468.521    21951742.699   117509433.533    21951746.688    91396241.993    21951747.324    91396118.985  
R17  22450068.383   120134906.202    22450067.398   120134853.196    22450070.902    93438235.092    22450070.770    93438234.076  
R01  21780171.797   116427496.932    21780171.039   116427611.946    21780175.953    90554749.155    21780174.273    90554739.157  
R14  22650525.648   120740063.205    22650525.066   120740173.194    22650528.312    93908936.355    22650530.148    93908921.382  
R23  20046734.484   107236532.390    20046733.359   107236540.387                                                                  
E31  25430459.617   133637970.802    25430461.598   102397936.638    25430462.488    99794605.828    25430462.359   101096271.342  
E03  27787339.328   146023448.815    27787343.609   111888104.930    27787343.277   109043495.475    27787341.414   110465801.807  
E26  23454955.766   123256643.182    23454955.508    94443412.744    23454956.043    92042312.103    23454956.387    93242864.527  
E01  26692000.180   140267397.702    26692001.812   107477618.491    26692003.012   104745137.705    26692003.285   106111380.705  
